X,Y,record_id,street_num,street_dir,street_name,street_type,date_status,description,owner_name,contractor_name,contractor_business_name,contractor_address,task,status,parcel_id,lon,lat,ObjectId
-83.127421,42.381918,DEM2019-01033,3778,,Monterey,,2019/03/01 00:00:00+00,wreck and remove,DETROIT LAND BANK AUTHORITY, ,SALENBIEN TRUCKING AND EXCAVATING,9217 N ANN ARBOR RD,Permit Issuance,Issued,14004411,-83.127421,42.381918,1
-83.111585,42.358516,DEM2019-01034,3778,,Northwestern,,2019/03/01 00:00:00+00,wreck and remove,DETROIT LAND BANK AUTHORITY, ,SALENBIEN TRUCKING AND EXCAVATING,9217 N ANN ARBOR RD,Permit Issuance,Issued,14002457,-83.111585,42.358516,2
-83.111701,42.358466,DEM2019-01035,3784, ,NORTHWESTERN, ,2019/03/01 00:00:00+00,wreck and remove,DETROIT LAND BANK AUTHORITY, ,SALENBIEN TRUCKING AND EXCAVATING,9217 N ANN ARBOR RD,Permit Issuance,Issued,14002456,-83.111701,42.358466,3
-83.0941,42.364624,DEM2019-01036,7433, ,DUNEDIN, ,2019/03/01 00:00:00+00,wreck and remove,DETROIT LAND BANK AUTHORITY, ,SALENBIEN TRUCKING AND EXCAVATING,9217 N ANN ARBOR RD,Permit Issuance,Issued,8009141,-83.0941,42.364624,4
-83.114883,42.372789,DEM2019-01037,9297, ,GENESSEE, ,2019/03/01 00:00:00+00,wreck and remove,DETROIT LAND BANK AUTHORITY, ,SALENBIEN TRUCKING AND EXCAVATING,9217 N ANN ARBOR RD,Permit Issuance,Issued,,-83.114883,42.372789,5
-82.987723,42.41271,DEM2019-01060,12291, ,GLENFIELD, ,2019/04/02 00:00:00+00,wreck and remove,DETROIT LAND BANK AUTHORITY, ,DORE & ASSOCIATES CONTRACTING,900 HARRY S TRUMAN PARKWAY,Permit Issuance,Issued,21010637,-82.987723,42.41271,6
-83.127317,42.358456,DEM2019-01061,5274, ,SPOKANE, ,2019/04/02 00:00:00+00,wreck and remove,DETROIT LAND BANK AUTHORITY, ,DORE & ASSOCIATES CONTRACTING,900 HARRY S TRUMAN PARKWAY,Permit Issuance,Issued,16003122,-83.127317,42.358456,7
-82.991347,42.403138,DEM2019-01079,11060, ,LONGVIEW, ,2019/02/26 00:00:00+00,Wreck and remove,DETROIT LAND BANK AUTHORITY, ,HOMRICH  WRECKING (2019),"65 CADILLAC SQ., SUITE # 2701",Permit Issuance,Issued,21007633,-82.991347,42.403138,8
-82.994188,42.403315,DEM2019-01080,10944, ,CHELSEA, ,2019/02/26 00:00:00+00,Wreck and remove,DETROIT LAND BANK AUTHORITY, ,HOMRICH  WRECKING (2019),"65 CADILLAC SQ., SUITE # 2701",Permit Issuance,Issued,21008047,-82.994188,42.403315,9
-82.994529,42.404817,DEM2019-01081,11003, ,WILSHIRE, ,2019/02/26 00:00:00+00,Wreck and remove,DETROIT LAND BANK AUTHORITY, ,HOMRICH  WRECKING (2019),"65 CADILLAC SQ., SUITE # 2701",Permit Issuance,Issued,21008513,-82.994529,42.404817,10
-82.993285,42.403636,DEM2019-01082,11000, ,CHELSEA, ,2019/02/26 00:00:00+00,Wreck and remove,DETROIT LAND BANK AUTHORITY, ,HOMRICH  WRECKING (2019),"65 CADILLAC SQ., SUITE # 2701",Permit Issuance,Issued,21008038,-82.993285,42.403636,11
,,DEM2019-01083,11703, ,WADE, ,2019/02/26 00:00:00+00,Wreck and remove,DETROIT LAND BANK AUTHORITY, ,HOMRICH  WRECKING (2019),"65 CADILLAC SQ., SUITE # 2701",Permit Issuance,Issued,,,,12
-82.99339,42.403612,DEM2019-01084,10994, ,CHELSEA, ,2019/02/26 00:00:00+00,Wreck and remove,DETROIT LAND BANK AUTHORITY, ,HOMRICH  WRECKING (2019),"65 CADILLAC SQ., SUITE # 2701",Permit Issuance,Issued,21008039,-82.99339,42.403612,13
-82.994376,42.404865,DEM2019-01085,11011,,Wilshire,,2019/02/26 00:00:00+00,Wreck and remove,DETROIT LAND BANK AUTHORITY, ,HOMRICH  WRECKING (2019),"65 CADILLAC SQ., SUITE # 2701",Permit Issuance,Issued,21008514,-82.994376,42.404865,14
-82.988644,42.405238,DEM2019-01086,11864, ,CHELSEA, ,2019/02/26 00:00:00+00,Wreck and remove,DETROIT LAND BANK AUTHORITY, ,HOMRICH  WRECKING (2019),"65 CADILLAC SQ., SUITE # 2701",Permit Issuance,Issued,21007994,-82.988644,42.405238,15
,,DEM2019-01087,11714, ,WADE, ,2019/02/26 00:00:00+00,Wreck and remove,DETROIT LAND BANK AUTHORITY, ,HOMRICH  WRECKING (2019),"65 CADILLAC SQ., SUITE # 2701",Permit Issuance,Issued,,,,16
-82.988167,42.399745,DEM2019-01088,11719, ,CAMDEN, ,2019/02/26 00:00:00+00,Wreck and remove,DETROIT LAND BANK AUTHORITY, ,HOMRICH  WRECKING (2019),"65 CADILLAC SQ., SUITE # 2701",Permit Issuance,Issued,21005848,-82.988167,42.399745,17
-82.99425,42.404916,DEM2019-01089,11021, ,WILSHIRE, ,2019/02/26 00:00:00+00,Wreck and remove,DETROIT LAND BANK AUTHORITY, ,HOMRICH  WRECKING (2019),"65 CADILLAC SQ., SUITE # 2701",Permit Issuance,Issued,21008515,-82.99425,42.404916,18
-82.992124,42.403281,DEM2019-01094,11033, ,LONGVIEW, ,2019/02/26 00:00:00+00,Wreck and remove,DETROIT LAND BANK AUTHORITY, ,HOMRICH  WRECKING (2019),"65 CADILLAC SQ., SUITE # 2701",Permit Issuance,Issued,21007659,-82.992124,42.403281,19
,,DEM2019-01095,11318,,Wade,,2019/02/26 00:00:00+00,Wreck and remove,DETROIT LAND BANK AUTHORITY, ,HOMRICH  WRECKING (2019),"65 CADILLAC SQ., SUITE # 2701",Permit Issuance,Issued,,,,20
-83.072003,42.40577,DEM2019-01097,2038, ,HALLECK, ,2019/03/19 00:00:00+00,Wreck and remove,DETROIT LAND BANK AUTHORITY," SMALLEY CONSTRUCTION, INC (W)","SMALLEY CONSTRUCTION, INC (W)",1224 LOCUST ST,Permit Issuance,Issued,9005567,-83.072003,42.40577,21
-82.965025,42.433279,DEM2019-00188,18804, ,HAYES, ,2019/01/08 00:00:00+00,WRECK & REMOVE DEBRIS,DETROIT LAND BANK AUTHORITY, ,DMC CONSULTANTS INC   2019 (W),13500 FOLEY,Permit Issuance,Issued,,-82.965025,42.433279,22
-83.081128,42.414536,DEM2019-01098,14127, ,DEQUINDRE, ,2019/02/21 00:00:00+00,Wreck and remove,DETROIT LAND BANK AUTHORITY," SMALLEY CONSTRUCTION, INC (W)","SMALLEY CONSTRUCTION, INC (W)",1224 LOCUST ST,Permit Issuance,Issued,9016977,-83.081128,42.414536,23
-83.082183,42.423188,DEM2019-01099,17578, ,DEQUINDRE, ,2019/02/21 00:00:00+00,Wreck and remove,DETROIT LAND BANK AUTHORITY," SMALLEY CONSTRUCTION, INC (W)","SMALLEY CONSTRUCTION, INC (W)",1224 LOCUST ST,Permit Issuance,Issued,9016290,-83.082183,42.423188,24
-83.07911,42.411592,DEM2019-01100,13559, ,DEQUINDRE, ,2019/02/21 00:00:00+00,Wreck and remove,DETROIT LAND BANK AUTHORITY," SMALLEY CONSTRUCTION, INC (W)","SMALLEY CONSTRUCTION, INC (W)",1224 LOCUST ST,Permit Issuance,Issued,9017007,-83.07911,42.411592,25
-83.079064,42.411517,DEM2019-01101,13553, ,DEQUINDRE, ,2019/02/21 00:00:00+00,Wreck and remove,DETROIT LAND BANK AUTHORITY," SMALLEY CONSTRUCTION, INC (W)","SMALLEY CONSTRUCTION, INC (W)",1224 LOCUST ST,Permit Issuance,Issued,9017008,-83.079064,42.411517,26
-83.07303,42.406566,DEM2019-01102,2011, ,MCLEAN, ,2019/02/21 00:00:00+00,Wreck and remove,DETROIT LAND BANK AUTHORITY," SMALLEY CONSTRUCTION, INC (W)","SMALLEY CONSTRUCTION, INC (W)",1224 LOCUST ST,Permit Issuance,Issued,9005732,-83.07303,42.406566,27
-83.073503,42.406397,DEM2019-01103,1979, ,MCLEAN, ,2019/02/21 00:00:00+00,Wreck and remove,DETROIT LAND BANK AUTHORITY," SMALLEY CONSTRUCTION, INC (W)","SMALLEY CONSTRUCTION, INC (W)",1224 LOCUST ST,Permit Issuance,Issued,9005728,-83.073503,42.406397,28
-83.071876,42.406148,DEM2019-01104,2051, ,HALLECK, ,2019/02/21 00:00:00+00,Wreck and remove,DETROIT LAND BANK AUTHORITY," SMALLEY CONSTRUCTION, INC (W)","SMALLEY CONSTRUCTION, INC (W)",1224 LOCUST ST,Permit Issuance,Issued,9005607,-83.071876,42.406148,29
-83.070094,42.406454,DEM2019-01105,2146, ,HALLECK, ,2019/02/21 00:00:00+00,Wreck and remove,DETROIT LAND BANK AUTHORITY," SMALLEY CONSTRUCTION, INC (W)","SMALLEY CONSTRUCTION, INC (W)",1224 LOCUST ST,Permit Issuance,Issued,9005546,-83.070094,42.406454,30
-83.176934,42.396065,DEM2019-01106,14581, ,SNOWDEN, ,2019/02/26 00:00:00+00,Wreck and Remove,DETROIT LAND BANK AUTHORITY, ,HOMRICH  WRECKING (2019),"65 CADILLAC SQ., SUITE # 2701",Permit Issuance,Issued,22028329,-83.176934,42.396065,31
-83.164963,42.404564,DEM2019-01107,15422, ,MENDOTA, ,2019/02/26 00:00:00+00,Wreck and remove,DETROIT LAND BANK AUTHORITY, ,HOMRICH  WRECKING (2019),"65 CADILLAC SQ., SUITE # 2701",Permit Issuance,Issued,16042896,-83.164963,42.404564,32
-83.189055,42.39854,DEM2019-01108,14907,,Hubbell,,2019/02/26 00:00:00+00,Wreck  and remove,DETROIT LAND BANK AUTHORITY, ,HOMRICH  WRECKING (2019),"65 CADILLAC SQ., SUITE # 2701",Permit Issuance,Issued,22040013,-83.189055,42.39854,33
,,DEM2019-01109,15000, ,HUBBELL, ,2019/02/26 00:00:00+00,Wreck  and remove,DETROIT LAND BANK AUTHORITY, ,HOMRICH  WRECKING (2019),"65 CADILLAC SQ., SUITE # 2701",Permit Issuance,Issued,,,,34
,,DEM2019-01110,14968, ,LITTLEFIELD, ,2019/02/26 00:00:00+00,Wreck  and remove,DETROIT LAND BANK AUTHORITY, ,HOMRICH  WRECKING (2019),"65 CADILLAC SQ., SUITE # 2701",Permit Issuance,Issued,,,,35
-83.174277,42.379214,DEM2019-01111,12322, ,CHEYENNE, ,2019/02/26 00:00:00+00,Wreck  and remove,DETROIT LAND BANK AUTHORITY, ,HOMRICH  WRECKING (2019),"65 CADILLAC SQ., SUITE # 2701",Permit Issuance,Issued,22025721,-83.174277,42.379214,36
-83.175533,42.399805,DEM2019-01112,14974, ,LITTLEFIELD, ,2019/02/26 00:00:00+00,Wreck  and remove,DETROIT LAND BANK AUTHORITY, ,HOMRICH  WRECKING (2019),"65 CADILLAC SQ., SUITE # 2701",Permit Issuance,Issued,22026763,-83.175533,42.399805,37
-83.18057,42.404971,DEM2019-01113,15475, ,TRACEY, ,2019/02/26 00:00:00+00,Wreck  and remove,DETROIT LAND BANK AUTHORITY, ,HOMRICH  WRECKING (2019),"65 CADILLAC SQ., SUITE # 2701",Permit Issuance,Issued,22031883,-83.18057,42.404971,38
-83.176152,42.402585,DEM2019-01114,15325, ,LITTLEFIELD, ,2019/02/26 00:00:00+00,Wreck  and remove,DETROIT LAND BANK AUTHORITY, ,HOMRICH  WRECKING (2019),"65 CADILLAC SQ., SUITE # 2701",Permit Issuance,Issued,22027308,-83.176152,42.402585,39
-83.193996,42.39914,DEM2019-01115,14961, ,COYLE, ,2019/02/26 00:00:00+00,Wreck  and remove,DETROIT LAND BANK AUTHORITY, ,HOMRICH  WRECKING (2019),"65 CADILLAC SQ., SUITE # 2701",Permit Issuance,Issued,22045492,-83.193996,42.39914,40
-83.185432,42.404832,DEM2019-01116,15474, ,FREELAND, ,2019/02/26 00:00:00+00,Wreck  and remove,DETROIT LAND BANK AUTHORITY, ,HOMRICH  WRECKING (2019),"65 CADILLAC SQ., SUITE # 2701",Permit Issuance,Issued,22035652,-83.185432,42.404832,41
-82.97563,42.402071,BLD2018-10014,12724,,EVANSTON,,2019/01/24 00:00:00+00,WRECK AND REMOVE DEBRIS,DETROIT LAND BANK AUTHORITY, ,MCDONAGH DEMOLITION,7243 W TOUHY AVENUE,Permit Issuance,Issued,21005049,-82.97563,42.402071,42
-83.089539,42.436105,DEM2019-01353,19362,,Hanna,,2019/03/14 00:00:00+00,wreck and remove,DETROIT LAND BANK AUTHORITY, ,HOMRICH  WRECKING (2019),"65 CADILLAC SQ., SUITE # 2701",Permit Issuance,Issued,9020252,-83.089539,42.436105,43
-83.017796,42.386271,BLD2017-05084,6145,,MAXWELL,,2019/09/26 00:00:00+00,HHF 5.26.17 (B)   WRECK AND REMOVE,DETROIT LAND BANK AUTHORITY,Scott Krall,BLUE STAR INC,21950 HOOVER,Permit Issuance,Issued,17008503,-83.017796,42.386271,44
-83.19382,42.39537,BLD2018-09683,14563,,COYLE,,2019/01/25 00:00:00+00,MULTI UNIT    WRECK AND REMOVE,DETROIT LAND BANK AUTHORITY," SMALLEY CONSTRUCTION, INC (W)","SMALLEY CONSTRUCTION, INC (W)",131 S. MAIN ST,Permit Issuance,Issued,22045515,-83.19382,42.39537,45
-83.170008,42.386603,BLD2018-08347,13551,,APPOLINE,,2020/11/10 00:00:00+00,WRECK AND REMOVE DEBRIS,CITY OF DETROIT HOUSING REVITALIZATION,,GAYANGA CO.,1420 WASHINGTON BLVD,Permit Issuance,Issued,22021776,-83.170008,42.386603,46
,,DEM2019-01117,15331, ,CRUSE, ,2019/02/26 00:00:00+00,Wreck  and remove,DETROIT LAND BANK AUTHORITY, ,HOMRICH  WRECKING (2019),"65 CADILLAC SQ., SUITE # 2701",Permit Issuance,Issued,,,,47
-83.17489,42.398953,DEM2019-01118,14911, ,CHEYENNE, ,2019/02/26 00:00:00+00,Wreck  and remove,DETROIT LAND BANK AUTHORITY, ,HOMRICH  WRECKING (2019),"65 CADILLAC SQ., SUITE # 2701",Permit Issuance,Issued,22026158,-83.17489,42.398953,48
-83.197028,42.39747,DEM2019-01119,14848, ,PREST, ,2019/02/26 00:00:00+00,Wreck  and remove,DETROIT LAND BANK AUTHORITY, ,HOMRICH  WRECKING (2019),"65 CADILLAC SQ., SUITE # 2701",Permit Issuance,Issued,22048593,-83.197028,42.39747,49
-83.190997,42.398494,DEM2019-01120,14905, ,LAUDER, ,2019/02/26 00:00:00+00,Wreck  and remove,DETROIT LAND BANK AUTHORITY, ,HOMRICH  WRECKING (2019),"65 CADILLAC SQ., SUITE # 2701",Permit Issuance,Issued,22042418,-83.190997,42.398494,50
-83.181516,42.403699,DEM2019-01121,15397, ,LESURE, ,2019/02/26 00:00:00+00,Wreck  and remove,DETROIT LAND BANK AUTHORITY, ,HOMRICH  WRECKING (2019),"65 CADILLAC SQ., SUITE # 2701",Permit Issuance,Issued,22033210,-83.181516,42.403699,51
-83.185101,42.399838,DEM2019-01122,15002, ,FREELAND, ,2019/02/26 00:00:00+00,Wreck  and remove,DETROIT LAND BANK AUTHORITY, ,HOMRICH  WRECKING (2019),"65 CADILLAC SQ., SUITE # 2701",Permit Issuance,Issued,22035613,-83.185101,42.399838,52
-83.188641,42.404266,DEM2019-01123,15450, ,HUBBELL, ,2019/02/26 00:00:00+00,Wreck  and remove,DETROIT LAND BANK AUTHORITY, ,HOMRICH  WRECKING (2019),"65 CADILLAC SQ., SUITE # 2701",Permit Issuance,Issued,22039047.002,-83.188641,42.404266,53
,,DEM2019-01124,15000, ,WARD, ,2019/02/26 00:00:00+00,Wreck  and remove,DETROIT LAND BANK AUTHORITY, ,HOMRICH  WRECKING (2019),"65 CADILLAC SQ., SUITE # 2701",Permit Issuance,Issued,,,,54
-83.034756,42.353626,DEM2019-01125,2229,,ERSKINE,,2019/02/20 00:00:00+00,NA,BOOTSTRIP COLLECTIVE, ,"FARROW GROUP, INC. (2018)",601 BEAUFAIT ST,Permit Issuance,Issued,9001576,-83.034756,42.353626,55
-83.176649,42.400556,DEM2019-01128,15038, ,SNOWDEN, ,2019/02/26 00:00:00+00,Wreck  and remove,DETROIT LAND BANK AUTHORITY, ,HOMRICH  WRECKING (2019),"65 CADILLAC SQ., SUITE # 2701",Permit Issuance,Issued,22027740,-83.176649,42.400556,56
-83.184868,42.404945,DEM2019-01129,15481, ,ARDMORE, ,2019/02/26 00:00:00+00,Wreck  and remove,DETROIT LAND BANK AUTHORITY, ,HOMRICH  WRECKING (2019),"65 CADILLAC SQ., SUITE # 2701",Permit Issuance,Issued,22035209,-83.184868,42.404945,57
-83.11855,42.304405,DEM2019-01130,1126,,CENTRAL,,2019/02/20 00:00:00+00,NA,ALFONSO LOPEZ, ,SIMPLY CONSTRUCTION /EXCAVATING LLC,20905 MAPLERIDGE,Permit Issuance,Issued,18009619,-83.11855,42.304405,58
,,DEM2019-01131,4750,,CONNOR,,2019/02/20 00:00:00+00,NA,BOBBY WHETSTONE, ,SIMPLY CONSTRUCTION /EXCAVATING LLC,20905 MAPLERIDGE,Permit Issuance,Issued,,,,59
-83.118505,42.3043,DEM2019-01132,1118, ,CENTRAL, ,2019/02/20 00:00:00+00,na,ALFONSO LOPEZ, ,SIMPLY CONSTRUCTION /EXCAVATING LLC,20905 MAPLERIDGE,Permit Issuance,Issued,18009618,-83.118505,42.3043,60
,,DEM2019-01133,14921, ,WARD, ,2019/02/26 00:00:00+00,Wreck and remove,DETROIT LAND BANK AUTHORITY, ,HOMRICH  WRECKING (2019),"65 CADILLAC SQ., SUITE # 2701",Permit Issuance,Issued,,,,61
-83.185875,42.405756,DEM2019-01134,15711, ,FREELAND, ,2019/02/26 00:00:00+00,Wrecking and remove,DETROIT LAND BANK AUTHORITY, ,HOMRICH  WRECKING (2019),"65 CADILLAC SQ., SUITE # 2701",Permit Issuance,Issued,22036193,-83.185875,42.405756,62
,,DEM2019-01135,4844, ,MICHIGAN,AVENUE,2019/02/21 00:00:00+00,na,CRESTWOOD INVESTMENT GROUP, ,PROFESSIONAL CONTRACTING & CONSULTI,16970 W WARREN,Permit Issuance,Issued,,,,63
-83.10019,42.418892,DEM2019-01136,81, ,EDGEVALE, ,2019/02/25 00:00:00+00,Wreck and remove,DETROIT LAND BANK AUTHORITY, ,GAYANGA CO. (2018 WRCK),1420 WASHINGTON BLVD,Permit Issuance,Issued,1004504,-83.10019,42.418892,64
-83.044853,42.415628,DEM2019-01137,13409, ,SYRACUSE, ,2019/02/25 00:00:00+00,Wreck and remove,DETROIT LAND BANK AUTHORITY, ,GAYANGA CO. (2018 WRCK),1420 WASHINGTON BLVD,Permit Issuance,Issued,13013965,-83.044853,42.415628,65
-82.987689,42.418864,DEM2019-01144,12668, ,GRATIOT, ,2019/02/25 00:00:00+00,"WRECK & REMOVE DEBRIS 
(COMPLETE DEMOLITION OF EXISTING BUILDING)",WEISON SAYKIS, ,"GIPSON BROTHERS TRUCKING, INC.2018",2918 EWALD CIRCLE,Permit Issuance,Issued,,-82.987689,42.418864,66
-83.079558,42.430945,DEM2019-01175,18829, ,FLEMING, ,2019/02/27 00:00:00+00,Wreck and remove,DETROIT LAND BANK AUTHORITY, ,LEADHEAD CONSTRUCTION LLC,41617 CUMMINGS LANE,Permit Issuance,Issued,9014794,-83.079558,42.430945,67
-83.115929,42.293232,DEM2019-01178,8117, ,THADDEUS, ,2019/02/27 00:00:00+00,wreck and remove,"BALAZS, OLGA", ,LEADHEAD CONSTRUCTION LLC,41617 CUMMINGS LANE,Permit Issuance,Issued,20000615,-83.115929,42.293232,68
,,DEM2019-01179,5661, ,ADDISON,STREET,2019/02/27 00:00:00+00,wreck and remove,FEDERAL NATIONAL MORTGAGE ASSOC, ,LEADHEAD CONSTRUCTION LLC,41617 CUMMINGS LANE,Permit Issuance,Issued,,,,69
-83.163378,42.396275,DEM2019-01180,14572, ,BIRWOOD, ,2019/02/27 00:00:00+00,wreck and remove,DETROIT LAND BANK AUTHORITY, ,LEADHEAD CONSTRUCTION LLC,41617 CUMMINGS LANE,Permit Issuance,Issued,16041942,-83.163378,42.396275,70
-83.265869,42.401177,DEM2019-01181,15341, ,BEAVERLAND, ,2019/02/28 00:00:00+00,wreck and remove,DETROIT LAND BANK AUTHORITY, ,"RICKMAN ENTERPRISE GROUP, LLC",15533 WOODROW WILSON,Permit Issuance,Issued,22118645,-83.265869,42.401177,71
-83.271046,42.402915,DEM2019-01182,15464, ,VIRGIL, ,2019/02/28 00:00:00+00,wreck and remove,DETROIT LAND BANK AUTHORITY, ,"RICKMAN ENTERPRISE GROUP, LLC",15533 WOODROW WILSON,Permit Issuance,Issued,22121037,-83.271046,42.402915,72
,,DEM2019-01183,15707, ,RIVERDALE,DRIVE,2019/02/28 00:00:00+00,wreck and remove,DETROIT LAND BANK AUTHORITY, ,"RICKMAN ENTERPRISE GROUP, LLC",15533 WOODROW WILSON,Permit Issuance,Issued,,,,73
-83.26353,42.405025,DEM2019-01184,15751, ,CHATHAM, ,2019/02/28 00:00:00+00,wreck and remove,"MILLER, HELENA", ,"RICKMAN ENTERPRISE GROUP, LLC",15533 WOODROW WILSON,Permit Issuance,Issued,22117159,-83.26353,42.405025,74
-83.030735,42.383825,DEM2019-01186,6455, ,CONCORD, ,2019/02/27 00:00:00+00,"WRECK & REMOVE RESIDENTIAL DWELLING,BACKFILL & REGRADE LAND.","WENDY GRIERSON - STRONG STEEL PRODUCTS, LLC", ,"FARROW GROUP, INC. (2018)",601 BEAUFAIT ST,Permit Issuance,Issued,15011561,-83.030735,42.383825,75
-83.030897,42.383939,DEM2019-01187,6467, ,CONCORD, ,2019/02/27 00:00:00+00,WRECK & REMOVE DEBRIS OF (2) FAMILY DWELLING AS INDICATED.,"WENDY GRIERSON - STRONG STEEL PRODUCTS, LLC", ,"FARROW GROUP, INC. (2018)",601 BEAUFAIT ST,Permit Issuance,Issued,15011559,-83.030897,42.383939,76
-83.013943,42.352584,DEM2019-01188,1816, ,MELDRUM, ,2019/02/27 00:00:00+00,"WRECK & REMOVE A SINGLE FAMILY DWELLING, APPROX 52' X 263' X 20' HIGH. BACKFILL W/CLEAN SOIL.",DIANE SIMPKINS, ,"FARROW GROUP, INC. (2018)",601 BEAUFAIT ST,Permit Issuance,Issued,15013532,-83.013943,42.352584,77
-83.102088,42.339381,DEM2019-01192,3863, ,BUCHANAN, ,2019/04/02 00:00:00+00,wreck and remove,"MCCOY, WILLIE", ,DORE & ASSOCIATES CONTRACTING,900 HARRY S TRUMAN PARKWAY,Permit Issuance,Issued,14000809,-83.102088,42.339381,78
-83.128396,42.369243,DEM2019-01193,9400, ,CASCADE, ,2019/04/02 00:00:00+00,wreck and remove,DETROIT LAND BANK AUTHORITY, ,DORE & ASSOCIATES CONTRACTING,900 HARRY S TRUMAN PARKWAY,Permit Issuance,Issued,14012352,-83.128396,42.369243,79
-83.163473,42.264386,DEM2019-01196,3233, ,EDSEL, ,2019/09/18 00:00:00+00,wreck and remove,DETROIT LAND BANK AUTHORITY, ,HOMRICH  WRECKING (2019),"65 CADILLAC SQ., SUITE # 2701",Permit Issuance,Issued,20014587,-83.163473,42.264386,80
,,DEM2019-01197,26121,,W. OUTER DRIVE,,2019/03/13 00:00:00+00,wreck and remove,DETROIT LAND BANK AUTHORITY, ,HOMRICH  WRECKING (2019),"65 CADILLAC SQ., SUITE # 2701",Permit Issuance,Issued,,,,81
-83.145835,42.35392,DEM2019-01198,8126, ,CENTRAL, ,2019/03/13 00:00:00+00,wreck and remove,DETROIT LAND BANK AUTHORITY, ,HOMRICH  WRECKING (2019),"65 CADILLAC SQ., SUITE # 2701",Permit Issuance,Issued,16024835,-83.145835,42.35392,82
-83.130872,42.352794,DEM2019-01199,7677, ,EPWORTH, ,2019/03/13 00:00:00+00,wreck and remove,DETROIT LAND BANK AUTHORITY, ,HOMRICH  WRECKING (2019),"65 CADILLAC SQ., SUITE # 2701",Permit Issuance,Issued,16014946,-83.130872,42.352794,83
-83.128694,42.341511,DEM2019-01207,6328,,Pittsburg,,2019/03/13 00:00:00+00,wreck and remove,"RODRIGUEZ, AITZA", ,HOMRICH  WRECKING (2019),"65 CADILLAC SQ., SUITE # 2701",Permit Issuance,Issued,18003192,-83.128694,42.341511,84
-83.160306,42.272661,DEM2019-01208,12797, ,DOWNING, ,2019/03/13 00:00:00+00,wreck and remove,DETROIT LAND BANK AUTHORITY, ,HOMRICH  WRECKING (2019),"65 CADILLAC SQ., SUITE # 2701",Permit Issuance,Issued,20018378,-83.160306,42.272661,85
-83.130525,42.300427,DEM2019-01210,9104, ,CHAMBERLAIN, ,2019/03/13 00:00:00+00,wreck and remove,DETROIT LAND BANK AUTHORITY, ,HOMRICH  WRECKING (2019),"65 CADILLAC SQ., SUITE # 2701",Permit Issuance,Issued,20002421,-83.130525,42.300427,86
-83.12292,42.360644,DEM2019-01211,4907, ,MAPLEWOOD, ,2019/03/13 00:00:00+00,wreck and remove,DETROIT LAND BANK AUTHORITY, ,HOMRICH  WRECKING (2019),"65 CADILLAC SQ., SUITE # 2701",Permit Issuance,Issued,14002420,-83.12292,42.360644,87
,,DEM2019-01212,6438, ,PELOUZE, ,2019/03/13 00:00:00+00,wreck and remove,DETROIT LAND BANK AUTHORITY, ,HOMRICH  WRECKING (2019),"65 CADILLAC SQ., SUITE # 2701",Permit Issuance,Issued,,,,88
-83.108291,42.311479,DEM2019-01213,6355, ,REGULAR, ,2019/03/13 00:00:00+00,wreck and remove,DETROIT LAND BANK AUTHORITY, ,HOMRICH  WRECKING (2019),"65 CADILLAC SQ., SUITE # 2701",Permit Issuance,Issued,18000811,-83.108291,42.311479,89
-83.127689,42.339939,DEM2019-01214,6334, ,GLADYS, ,2019/03/13 00:00:00+00,wreck and remove,DETROIT LAND BANK AUTHORITY, ,HOMRICH  WRECKING (2019),"65 CADILLAC SQ., SUITE # 2701",Permit Issuance,Issued,18003055,-83.127689,42.339939,90
-83.129145,42.33993,DEM2019-01215,6427, ,MCGRAW, ,2019/03/13 00:00:00+00,wreck and remove,DETROIT LAND BANK AUTHORITY, ,HOMRICH  WRECKING (2019),"65 CADILLAC SQ., SUITE # 2701",Permit Issuance,Issued,18003067,-83.129145,42.33993,91
-83.105079,42.336103,DEM2019-01216,4029, ,SCOTTEN, ,2019/03/13 00:00:00+00,wreck and remove,DETROIT LAND BANK AUTHORITY, ,HOMRICH  WRECKING (2019),"65 CADILLAC SQ., SUITE # 2701",Permit Issuance,Issued,14009976,-83.105079,42.336103,92
,,DEM2019-01217,720, ,BEARD, ,2019/03/13 00:00:00+00,wreck and remove,DETROIT LAND BANK AUTHORITY, ,HOMRICH  WRECKING (2019),"65 CADILLAC SQ., SUITE # 2701",Permit Issuance,Issued,,,,93
-83.143995,42.334837,DEM2019-01218,5635, ,LUMLEY, ,2019/03/13 00:00:00+00,wreck and remove,DETROIT LAND BANK AUTHORITY, ,HOMRICH  WRECKING (2019),"65 CADILLAC SQ., SUITE # 2701",Permit Issuance,Issued,20008661,-83.143995,42.334837,94
-83.151369,42.276417,DEM2019-01219,1655, ,LIEBOLD, ,2019/03/13 00:00:00+00,wreck and remove,DETROIT LAND BANK AUTHORITY, ,HOMRICH  WRECKING (2019),"65 CADILLAC SQ., SUITE # 2701",Permit Issuance,Issued,20013758.008,-83.151369,42.276417,95
-83.106761,42.353216,DEM2019-01220,6609, ,ROOSEVELT, ,2019/03/13 00:00:00+00,wreck and remove,DETROIT LAND BANK AUTHORITY, ,HOMRICH  WRECKING (2019),"65 CADILLAC SQ., SUITE # 2701",Permit Issuance,Issued,12010225,-83.106761,42.353216,96
-83.124804,42.326117,DEM2019-01221,6837, ,CLAYTON, ,2019/03/13 00:00:00+00,wreck and remove,DETROIT LAND BANK AUTHORITY, ,HOMRICH  WRECKING (2019),"65 CADILLAC SQ., SUITE # 2701",Permit Issuance,Issued,18001661,-83.124804,42.326117,97
-83.139197,42.291908,DEM2019-01222,10256, ,FLORA, ,2019/03/13 00:00:00+00,wreck and remove,DETROIT LAND BANK AUTHORITY, ,HOMRICH  WRECKING (2019),"65 CADILLAC SQ., SUITE # 2701",Permit Issuance,Issued,20001569,-83.139197,42.291908,98
-82.988909,42.403267,DEM2019-00916,11793,,ELMDALE,,2019/02/26 00:00:00+00,wrecking and remove,DETROIT LAND BANK AUTHORITY, ,HOMRICH  WRECKING (2019),"65 CADILLAC SQ., SUITE # 2701",Permit Issuance,Issued,21007311,-82.988909,42.403267,99
-83.122392,42.308419,DEM2019-01223,7748, ,LANE, ,2019/03/13 00:00:00+00,wreck and remove,DETROIT LAND BANK AUTHORITY, ,HOMRICH  WRECKING (2019),"65 CADILLAC SQ., SUITE # 2701",Permit Issuance,Issued,20003472,-83.122392,42.308419,100
-83.146623,42.336949,DEM2019-01224,5907, ,ELMER, ,2019/03/13 00:00:00+00,wreck and remove,DETROIT LAND BANK AUTHORITY, ,HOMRICH  WRECKING (2019),"65 CADILLAC SQ., SUITE # 2701",Permit Issuance,Issued,20008848,-83.146623,42.336949,101
-83.157601,42.259422,DEM2019-01225,3461, ,BASSETT, ,2019/03/13 00:00:00+00,wreck and remove,DETROIT LAND BANK AUTHORITY, ,HOMRICH  WRECKING (2019),"65 CADILLAC SQ., SUITE # 2701",Permit Issuance,Issued,20011279,-83.157601,42.259422,102
-83.160741,42.257198,DEM2019-01226,3759, ,ETHEL, ,2019/03/13 00:00:00+00,wreck and remove,DETROIT LAND BANK AUTHORITY, ,HOMRICH  WRECKING (2019),"65 CADILLAC SQ., SUITE # 2701",Permit Issuance,Issued,20011784,-83.160741,42.257198,103
,,DEM2019-01227,4998, ,31ST,STREET,2019/03/13 00:00:00+00,wreck and remove,DETROIT LAND BANK AUTHORITY, ,HOMRICH  WRECKING (2019),"65 CADILLAC SQ., SUITE # 2701",Permit Issuance,Issued,,,,104
,,DEM2019-01230,4415, ,24TH,STREET,2019/03/13 00:00:00+00,wreck and remove,DETROIT LAND BANK AUTHORITY, ,HOMRICH  WRECKING (2019),"65 CADILLAC SQ., SUITE # 2701",Permit Issuance,Issued,,,,105
,,DEM2019-01231,4780, ,23RD,STREET,2019/03/13 00:00:00+00,wreck and remove,DETROIT LAND BANK AUTHORITY, ,HOMRICH  WRECKING (2019),"65 CADILLAC SQ., SUITE # 2701",Permit Issuance,Issued,,,,106
-83.131904,42.301747,DEM2019-01232,9126,,Homer,,2019/03/13 00:00:00+00,wreck and remove,DETROIT LAND BANK AUTHORITY, ,HOMRICH  WRECKING (2019),"65 CADILLAC SQ., SUITE # 2701",Permit Issuance,Issued,20002812,-83.131904,42.301747,107
-83.098946,42.342615,DEM2019-01233,4532,,24th,,2019/03/13 00:00:00+00,wreck and remove,DETROIT LAND BANK AUTHORITY, ,HOMRICH  WRECKING (2019),"65 CADILLAC SQ., SUITE # 2701",Permit Issuance,Issued,12008708,-83.098946,42.342615,108
-83.078331,42.435248,DEM2019-01490,19265, ,GODDARD, ,2019/03/25 00:00:00+00,Wreck and remove,DETROIT LAND BANK AUTHORITY, ,HOMRICH  WRECKING (2019),"65 CADILLAC SQ., SUITE # 2701",Permit Issuance,Issued,9014176,-83.078331,42.435248,109
-83.189939,42.396267,BLD2018-09686,14621,,MARLOWE,,2019/01/25 00:00:00+00,WRECK AND REMOVE,DETROIT LAND BANK AUTHORITY," SMALLEY CONSTRUCTION, INC (W)","SMALLEY CONSTRUCTION, INC (W)",131 S. MAIN ST,Permit Issuance,Issued,22041294,-83.189939,42.396267,110
-83.090406,42.433308,DEM2019-01354,19138, ,RUSSELL, ,2019/03/14 00:00:00+00,wreck and remove,DETROIT LAND BANK AUTHORITY, ,HOMRICH  WRECKING (2019),"65 CADILLAC SQ., SUITE # 2701",Permit Issuance,Issued,9020694,-83.090406,42.433308,111
-83.142019,42.367864,DEM2019-00189,9584,,BURNETTE,,2019/01/07 00:00:00+00,WRECK AND REMOVE DEBRIS,DETROIT LAND BANK AUTHORITY, ,SALENBIEN TRUCKING AND EXCAVATING,9217 N ANN ARBOR RD,Permit Issuance,Issued,,-83.142019,42.367864,112
-82.97531,42.402025,BLD2018-10015,12738,,EVANSTON,,2019/01/24 00:00:00+00,WRECK AND REMOVE DEBRIS,DETROIT LAND BANK AUTHORITY, ,MCDONAGH DEMOLITION,7243 W TOUHY AVENUE,Permit Issuance,Issued,21005047,-82.97531,42.402025,113
-83.15246,42.37877,BLD2018-08348,12200, ,NORTHLAWN, ,2019/10/09 00:00:00+00,WRECK AND REMOVE,CITY OF DETROIT HOUSING & REVITALIZATION, ,GAYANGA CO,1420 WASHINGTON BLVD,Permit Issuance,Issued,16031599,-83.15246,42.37877,114
-83.240616,42.360899,BLD2018-01067,9114,,FIELDING,,2020/01/14 00:00:00+00,WRECK AND REMOVE,KIESHA CASH,Luther Wortham,"ABC DEMOLITION COMPANY, INC",2001 WATERMAN,Permit Issuance,Issued,22102334,-83.240616,42.360899,115
-83.076518,42.435359,DEM2019-01491,19272, ,MACKAY, ,2019/03/25 00:00:00+00,Wreck and remove,DETROIT LAND BANK AUTHORITY, ,HOMRICH  WRECKING (2019),"65 CADILLAC SQ., SUITE # 2701",Permit Issuance,Issued,9013187,-83.076518,42.435359,116
-83.080804,42.43561,DEM2019-01492,19309, ,LUMPKIN, ,2019/03/25 00:00:00+00,Wreck and remove,DETROIT LAND BANK AUTHORITY, ,HOMRICH  WRECKING (2019),"65 CADILLAC SQ., SUITE # 2701",Permit Issuance,Issued,,-83.080804,42.43561,117
-83.077772,42.435725,DEM2019-01493,19314, ,GODDARD, ,2019/03/25 00:00:00+00,Wreck and remove,DETROIT LAND BANK AUTHORITY, ,HOMRICH  WRECKING (2019),"65 CADILLAC SQ., SUITE # 2701",Permit Issuance,Issued,,-83.077772,42.435725,118
-83.078343,42.436052,DEM2019-01494,19339, ,GODDARD, ,2019/03/25 00:00:00+00,Wreck and remove,DETROIT LAND BANK AUTHORITY, ,HOMRICH  WRECKING (2019),"65 CADILLAC SQ., SUITE # 2701",Permit Issuance,Issued,,-83.078343,42.436052,119
-83.079583,42.436359,DEM2019-01495,19361, ,FLEMING, ,2019/03/25 00:00:00+00,Wreck and remove,DETROIT LAND BANK AUTHORITY, ,HOMRICH  WRECKING (2019),"65 CADILLAC SQ., SUITE # 2701",Permit Issuance,Issued,9014743,-83.079583,42.436359,120
-83.077823,42.436551,DEM2019-01496,19372, ,GODDARD, ,2019/03/25 00:00:00+00,Wreck and remove,DETROIT LAND BANK AUTHORITY, ,HOMRICH  WRECKING (2019),"65 CADILLAC SQ., SUITE # 2701",Permit Issuance,Issued,9014126,-83.077823,42.436551,121
,,DEM2019-01497,19376, ,MARX, ,2019/03/25 00:00:00+00,Wreck and remove,DETROIT LAND BANK AUTHORITY, ,HOMRICH  WRECKING (2019),"65 CADILLAC SQ., SUITE # 2701",Permit Issuance,Issued,,,,122
-83.079602,42.437013,DEM2019-01498,19409, ,FLEMING, ,2019/03/25 00:00:00+00,Wreck and remove,DETROIT LAND BANK AUTHORITY, ,HOMRICH  WRECKING (2019),"65 CADILLAC SQ., SUITE # 2701",Permit Issuance,Issued,9014736,-83.079602,42.437013,123
-83.080298,42.437089,DEM2019-01499,19416, ,LUMPKIN, ,2019/03/25 00:00:00+00,Wreck and remove,DETROIT LAND BANK AUTHORITY, ,HOMRICH  WRECKING (2019),"65 CADILLAC SQ., SUITE # 2701",Permit Issuance,Issued,9015268,-83.080298,42.437089,124
-83.079631,42.437264,DEM2019-01500,19427, ,FLEMING, ,2019/03/25 00:00:00+00,Wreck and remove,DETROIT LAND BANK AUTHORITY, ,HOMRICH  WRECKING (2019),"65 CADILLAC SQ., SUITE # 2701",Permit Issuance,Issued,9014733,-83.079631,42.437264,125
-83.079632,42.437362,DEM2019-01501,19435,,Fleming,,2019/03/25 00:00:00+00,Wreck and remove,DETROIT LAND BANK AUTHORITY, ,HOMRICH  WRECKING (2019),"65 CADILLAC SQ., SUITE # 2701",Permit Issuance,Issued,9014732,-83.079632,42.437362,126
-83.079093,42.437522,DEM2019-01502,19446,,Fleming,,2019/03/25 00:00:00+00,Wreck and remove,DETROIT LAND BANK AUTHORITY, ,HOMRICH  WRECKING (2019),"65 CADILLAC SQ., SUITE # 2701",Permit Issuance,Issued,9014689,-83.079093,42.437522,127
-83.079066,42.437634,DEM2019-01503,19452,,Fleming,,2019/03/25 00:00:00+00,Wreck and remove,DETROIT LAND BANK AUTHORITY, ,HOMRICH  WRECKING (2019),"65 CADILLAC SQ., SUITE # 2701",Permit Issuance,Issued,9014690,-83.079066,42.437634,128
-83.079654,42.437656,DEM2019-01504,19459, ,FLEMING, ,2019/03/25 00:00:00+00,Wreck and remove,DETROIT LAND BANK AUTHORITY, ,HOMRICH  WRECKING (2019),"65 CADILLAC SQ., SUITE # 2701",Permit Issuance,Issued,9014729,-83.079654,42.437656,129
-83.079649,42.438075,DEM2019-01505,19615, ,FLEMING, ,2019/03/25 00:00:00+00,Wreck and remove,DETROIT LAND BANK AUTHORITY, ,HOMRICH  WRECKING (2019),"65 CADILLAC SQ., SUITE # 2701",Permit Issuance,Issued,9014726,-83.079649,42.438075,130
,,DEM2019-01506,19630,,Fleming,,2019/03/25 00:00:00+00,Wreck and remove,DETROIT LAND BANK AUTHORITY, ,HOMRICH  WRECKING (2019),"65 CADILLAC SQ., SUITE # 2701",Permit Issuance,Issued,,,,131
-83.079688,42.43871,DEM2019-01507,19663,,Fleming,,2019/03/25 00:00:00+00,Wreck and remove,DETROIT LAND BANK AUTHORITY, ,HOMRICH  WRECKING (2019),"65 CADILLAC SQ., SUITE # 2701",Permit Issuance,Issued,9014720,-83.079688,42.43871,132
-83.085208,42.438637,DEM2019-01508,19666,,ORLEANS,,2019/03/25 00:00:00+00,Wreck and remove,DETROIT LAND BANK AUTHORITY, ,HOMRICH  WRECKING (2019),"65 CADILLAC SQ., SUITE # 2701",Permit Issuance,Issued,9017912,-83.085208,42.438637,133
-83.080996,42.438948,DEM2019-01509,19681, ,LUMPKIN, ,2019/03/25 00:00:00+00,Wreck and remove,DETROIT LAND BANK AUTHORITY, ,HOMRICH  WRECKING (2019),"65 CADILLAC SQ., SUITE # 2701",Permit Issuance,Issued,9015332,-83.080996,42.438948,134
-83.081001,42.439057,DEM2019-01510,19689, ,LUMPKIN, ,2019/03/25 00:00:00+00,Wreck and remove,DETROIT LAND BANK AUTHORITY, ,HOMRICH  WRECKING (2019),"65 CADILLAC SQ., SUITE # 2701",Permit Issuance,Issued,9015331,-83.081001,42.439057,135
-82.988968,42.399044,DEM2019-00917,11392, ,CAMDEN, ,2019/02/26 00:00:00+00,Wrecking and removed,DETROIT LAND BANK AUTHORITY, ,HOMRICH  WRECKING (2019),"65 CADILLAC SQ., SUITE # 2701",Permit Issuance,Issued,21005821,-82.988968,42.399044,136
,,DEM2019-01511,19711,,Fleming,,2019/03/25 00:00:00+00,Wreck and remove,DETROIT LAND BANK AUTHORITY, ,HOMRICH  WRECKING (2019),"65 CADILLAC SQ., SUITE # 2701",Permit Issuance,Issued,,,,137
-83.081089,42.44107,DEM2019-01512,19951, ,LUMPKIN, ,2019/03/25 00:00:00+00,Wreck and remove,DETROIT LAND BANK AUTHORITY, ,HOMRICH  WRECKING (2019),"65 CADILLAC SQ., SUITE # 2701",Permit Issuance,Issued,9015320,-83.081089,42.44107,138
-83.080376,42.441099,DEM2019-01513,19956, ,LUMPKIN, ,2019/03/25 00:00:00+00,Wreck and remove,DETROIT LAND BANK AUTHORITY, ,HOMRICH  WRECKING (2019),"65 CADILLAC SQ., SUITE # 2701",Permit Issuance,Issued,9015302,-83.080376,42.441099,139
-83.075956,42.441572,DEM2019-01514,19982,,MACKAY,,2019/03/29 00:00:00+00,Wreck and remove,DETROIT LAND BANK AUTHORITY, ,HOMRICH  WRECKING (2019),"65 CADILLAC SQ., SUITE # 2701",Permit Issuance,Issued,13024460,-83.075956,42.441572,140
-83.08165,42.44174,DEM2019-01515,20004, ,ST AUBIN, ,2019/03/25 00:00:00+00,Wreck and remove,DETROIT LAND BANK AUTHORITY, ,HOMRICH  WRECKING (2019),"65 CADILLAC SQ., SUITE # 2701",Permit Issuance,Issued,9015861,-83.08165,42.44174,141
-83.082305,42.441809,DEM2019-01516,20011, ,ST AUBIN, ,2019/03/25 00:00:00+00,Wreck and remove,DETROIT LAND BANK AUTHORITY, ,HOMRICH  WRECKING (2019),"65 CADILLAC SQ., SUITE # 2701",Permit Issuance,Issued,9015896,-83.082305,42.441809,142
-83.081113,42.442387,DEM2019-01517,20051, ,LUMPKIN, ,2019/03/29 00:00:00+00,Wreck and remove,DETROIT LAND BANK AUTHORITY, ,HOMRICH  WRECKING (2019),"65 CADILLAC SQ., SUITE # 2701",Permit Issuance,Issued,,-83.081113,42.442387,143
-83.079041,42.436988,DEM2019-01518,19408,,Fleming,,2019/03/25 00:00:00+00,Wreck and remove,DETROIT LAND BANK AUTHORITY, ,HOMRICH  WRECKING (2019),"65 CADILLAC SQ., SUITE # 2701",Permit Issuance,Issued,9014683,-83.079041,42.436988,144
-83.25296,42.401062,DEM2019-01519,15326, ,CHAPEL, ,2019/03/22 00:00:00+00,Wreck and remove,"CAMPBELL, JOHNNY L & IMOGENE", ,LEADHEAD CONSTRUCTION LLC,41617 CUMMINGS LANE,Permit Issuance,Issued,,-83.25296,42.401062,145
-83.162372,42.369954,DEM2019-01522,10326, ,MAPLELAWN, ,2019/03/22 00:00:00+00,Wreck and remove,"BATTLE, WYONIA", ,LEADHEAD CONSTRUCTION LLC,41617 CUMMINGS LANE,Permit Issuance,Issued,18006204,-83.162372,42.369954,146
-83.132739,42.357801,DEM2019-01523,8539, ,COLFAX, ,2019/03/27 00:00:00+00,Wreck and remove,DETROIT LAND BANK AUTHORITY, ,GAYANGA CO. (2018 WRCK),1420 WASHINGTON BLVD,Permit Issuance,Issued,16013995,-83.132739,42.357801,147
-82.992668,42.373621,DEM2019-01525,3747, ,PENNSYLVANIA, ,2019/05/10 00:00:00+00,Wreck and remove,DETROIT LAND BANK AUTHORITY, ,GAYANGA CO. (2018 WRCK),1420 WASHINGTON BLVD,Permit Issuance,Issued,19006015,-82.992668,42.373621,148
-82.975725,42.430378,DEM2019-01527,14274, ,GLENWOOD, ,2019/07/24 00:00:00+00,Wreck and Remove,DETROIT LAND BANK AUTHORITY," SMALLEY CONSTRUCTION, INC (W)","SMALLEY CONSTRUCTION, INC (W)",1224 LOCUST ST,Permit Issuance,Issued,21018111,-82.975725,42.430378,149
-82.946503,42.429192,DEM2019-01528,12033,,Rossiter,,2019/07/24 00:00:00+00,Wreck and Remove,DETROIT LAND BANK AUTHORITY," SMALLEY CONSTRUCTION, INC (W)","SMALLEY CONSTRUCTION, INC (W)",1224 LOCUST ST,Permit Issuance,Issued,21058698.008,-82.946503,42.429192,150
-82.966012,42.440006,DEM2019-01529,15040, ,LIBERAL, ,2019/07/24 00:00:00+00,Wreck and Remove,DETROIT LAND BANK AUTHORITY," SMALLEY CONSTRUCTION, INC (W)","SMALLEY CONSTRUCTION, INC (W)",1224 LOCUST ST,Permit Issuance,Issued,,-82.966012,42.440006,151
-82.96073,42.445144,DEM2019-01530,15602, ,EASTBURN, ,2019/07/24 00:00:00+00,Wreck and Remove,DETROIT LAND BANK AUTHORITY," SMALLEY CONSTRUCTION, INC (W)","SMALLEY CONSTRUCTION, INC (W)",1224 LOCUST ST,Permit Issuance,Issued,21025586,-82.96073,42.445144,152
-82.95248,42.43944,DEM2019-01531,16245, ,NOVARA, ,2019/07/24 00:00:00+00,Wreck and Remove,DETROIT LAND BANK AUTHORITY," SMALLEY CONSTRUCTION, INC (W)","SMALLEY CONSTRUCTION, INC (W)",1224 LOCUST ST,Permit Issuance,Issued,21022602,-82.95248,42.43944,153
-82.949319,42.431019,DEM2019-01532,12477,,Whitehill,,2019/07/24 00:00:00+00,Wreck and Remove,DETROIT LAND BANK AUTHORITY," SMALLEY CONSTRUCTION, INC (W)","SMALLEY CONSTRUCTION, INC (W)",1224 LOCUST ST,Permit Issuance,Issued,21058255.003,-82.949319,42.431019,154
,,DEM2019-01533,15484,,Rossini Drive,,2019/07/24 00:00:00+00,Wreck and Remove,DETROIT LAND BANK AUTHORITY," SMALLEY CONSTRUCTION, INC (W)","SMALLEY CONSTRUCTION, INC (W)",1224 LOCUST ST,Permit Issuance,Issued,,,,155
-82.95801,42.443053,DEM2019-01534,15817,EAST,STATE FAIR, ,2019/07/24 00:00:00+00,Wreck and Remove,DETROIT LAND BANK AUTHORITY," SMALLEY CONSTRUCTION, INC (W)","SMALLEY CONSTRUCTION, INC (W)",1224 LOCUST ST,Permit Issuance,Issued,,-82.95801,42.443053,156
-82.952072,42.44458,DEM2019-01535,16276,,Fairmount,,2019/07/24 00:00:00+00,Wreck and Remove,DETROIT LAND BANK AUTHORITY," SMALLEY CONSTRUCTION, INC (W)","SMALLEY CONSTRUCTION, INC (W)",1224 LOCUST ST,Permit Issuance,Issued,21025125,-82.952072,42.44458,157
,,DEM2019-01536,15853,,Rossini Drive,,2019/07/24 00:00:00+00,Wreck and Remove,DETROIT LAND BANK AUTHORITY," SMALLEY CONSTRUCTION, INC (W)","SMALLEY CONSTRUCTION, INC (W)",1224 LOCUST ST,Permit Issuance,Issued,,,,158
-82.963561,42.436173,DEM2019-01537,15292, ,MADDELEIN, ,2019/07/24 00:00:00+00,Wreck and Remove,DETROIT LAND BANK AUTHORITY," SMALLEY CONSTRUCTION, INC (W)","SMALLEY CONSTRUCTION, INC (W)",1224 LOCUST ST,Permit Issuance,Issued,21021378,-82.963561,42.436173,159
-82.947569,42.429647,DEM2019-01538,12133, ,WAYBURN, ,2019/07/24 00:00:00+00,Wreck and Remove,DETROIT LAND BANK AUTHORITY," SMALLEY CONSTRUCTION, INC (W)","SMALLEY CONSTRUCTION, INC (W)",1224 LOCUST ST,Permit Issuance,Issued,21063686.008,-82.947569,42.429647,160
-82.958818,42.444496,DEM2019-01539,15708,,Fairmount,,2019/07/24 00:00:00+00,Wreck and Remove,DETROIT LAND BANK AUTHORITY," SMALLEY CONSTRUCTION, INC (W)","SMALLEY CONSTRUCTION, INC (W)",1224 LOCUST ST,Permit Issuance,Issued,21025165.001,-82.958818,42.444496,161
-83.087966,42.446355,DEM2019-01540,20502, ,GREELEY, ,2019/03/20 00:00:00+00,WRECK AND REMOVE DEBRIS,US BANK NATIONAL ASSOCIATION, ,SJ DESIGN & CONSTRUCTION LLC,25855 LAHSER RD,Permit Issuance,Issued,9019387,-83.087966,42.446355,162
-83.128652,42.368873,DEM2019-01543,9383, ,CASCADE, ,2019/03/22 00:00:00+00,Wreck and remove,DETROIT LAND BANK AUTHORITY," SMALLEY CONSTRUCTION, INC (W)","SMALLEY CONSTRUCTION, INC (W)",1224 LOCUST ST,Permit Issuance,Issued,14012530,-83.128652,42.368873,163
-83.020076,42.431656,DEM2019-01545,8240,,Robinwood,,2019/04/29 00:00:00+00,Wreck and remove,DETROIT LAND BANK AUTHORITY," SMALLEY CONSTRUCTION, INC (W)","SMALLEY CONSTRUCTION, INC (W)",1224 LOCUST ST,Permit Issuance,Issued,17004674,-83.020076,42.431656,164
-83.020062,42.431269,DEM2019-01546,8241,,Quinn,,2019/04/29 00:00:00+00,Wreck and remove,DETROIT LAND BANK AUTHORITY," SMALLEY CONSTRUCTION, INC (W)","SMALLEY CONSTRUCTION, INC (W)",1224 LOCUST ST,Permit Issuance,Issued,17004650,-83.020062,42.431269,165
-83.020003,42.433465,DEM2019-01547,8247,EAST,BRENTWOOD, ,2019/04/29 00:00:00+00,Wreck and remove,DETROIT LAND BANK AUTHORITY," SMALLEY CONSTRUCTION, INC (W)","SMALLEY CONSTRUCTION, INC (W)",1224 LOCUST ST,Permit Issuance,Issued,17004888,-83.020003,42.433465,166
-83.019825,42.432004,DEM2019-01548,8255,EAST,ROBINWOOD, ,2019/04/29 00:00:00+00,Wreck and remove,DETROIT LAND BANK AUTHORITY," SMALLEY CONSTRUCTION, INC (W)","SMALLEY CONSTRUCTION, INC (W)",1224 LOCUST ST,Permit Issuance,Issued,17004725,-83.019825,42.432004,167
-83.019334,42.432732,DEM2019-01549,8281,,Hollywood,,2019/04/29 00:00:00+00,Wreck and remove,DETROIT LAND BANK AUTHORITY," SMALLEY CONSTRUCTION, INC (W)","SMALLEY CONSTRUCTION, INC (W)",1224 LOCUST ST,Permit Issuance,Issued,17004810,-83.019334,42.432732,168
-83.236589,42.336172,DEM2019-01550,6321, ,VAUGHAN, ,2019/03/22 00:00:00+00,Wreck and remove,"MANSOUR, NAZEK", ,"FARROW GROUP, INC. (2018)",601 BEAUFAIT ST,Permit Issuance,Issued,22098711,-83.236589,42.336172,169
-82.989704,42.418317,DEM2019-01556,11980, ,RACINE, ,2019/03/28 00:00:00+00,Commercial Demo,"RICART, CARLOS"," ABLE DEMOLITION, INC 2018","ABLE DEMOLITION, INC 2018",400 RENAISSANCE,Permit Issuance,Issued,,-82.989704,42.418317,170
-83.107506,42.445214,DEM2019-01558,20525, ,CHARLESTON, ,2019/03/22 00:00:00+00,Wreck and Remove,DETROIT LAND BANK AUTHORITY, ,RDC CONSTRUCTION SERVICES LLC,26400 W EIGHT MILE RD,Permit Issuance,Issued,9025109,-83.107506,42.445214,171
-83.230491,42.386633,DEM2019-01559,19240,,Schoolcraft,,2019/06/05 00:00:00+00,Commercial Wreck and Demolish,CITY OF DETROIT, ,SALENBIEN TRUCKING AND EXCAVATING,9217 N ANN ARBOR RD,Permit Issuance,Issued,,-83.230491,42.386633,172
-83.24758,42.400274,DEM2019-01561,20919, ,FENKELL, ,2019/06/05 00:00:00+00,Commercial Wreck and Demolish,CITY OF DETROIT, ,SALENBIEN TRUCKING AND EXCAVATING,9217 N ANN ARBOR RD,Permit Issuance,Issued,,-83.24758,42.400274,173
-83.019349,42.43314,DEM2019-01562,8282,,Brentwood,,2019/04/29 00:00:00+00,Wrecking and remove,DETROIT LAND BANK AUTHORITY," SMALLEY CONSTRUCTION, INC (W)","SMALLEY CONSTRUCTION, INC (W)",1224 LOCUST ST,Permit Issuance,Issued,17004832,-83.019349,42.43314,174
-83.01933,42.432014,DEM2019-01563,8283,,Robinwood,,2019/04/29 00:00:00+00,Wrecking and remove,DETROIT LAND BANK AUTHORITY," SMALLEY CONSTRUCTION, INC (W)","SMALLEY CONSTRUCTION, INC (W)",1224 LOCUST ST,Permit Issuance,Issued,17004729,-83.01933,42.432014,175
,,DEM2019-01564,8284,,Robinwood,,2019/04/29 00:00:00+00,Wrecking and remove,DETROIT LAND BANK AUTHORITY," SMALLEY CONSTRUCTION, INC (W)","SMALLEY CONSTRUCTION, INC (W)",1224 LOCUST ST,Permit Issuance,Issued,,,,176
-83.018658,42.433157,DEM2019-01565,8320,,Brentwood,,2019/04/29 00:00:00+00,Wrecking and remove,DETROIT LAND BANK AUTHORITY," SMALLEY CONSTRUCTION, INC (W)","SMALLEY CONSTRUCTION, INC (W)",1224 LOCUST ST,Permit Issuance,Issued,17004826,-83.018658,42.433157,177
-83.018653,42.432753,DEM2019-01566,8321,,Hollywood,,2019/04/29 00:00:00+00,Wrecking and remove,DETROIT LAND BANK AUTHORITY," SMALLEY CONSTRUCTION, INC (W)","SMALLEY CONSTRUCTION, INC (W)",1224 LOCUST ST,Permit Issuance,Issued,17004816,-83.018653,42.432753,178
-83.023501,42.431599,DEM2019-01567,8028,EAST,ROBINWOOD, ,2019/04/29 00:00:00+00,Wrecking and remove,DETROIT LAND BANK AUTHORITY," SMALLEY CONSTRUCTION, INC (W)","SMALLEY CONSTRUCTION, INC (W)",1224 LOCUST ST,Permit Issuance,Issued,17004698,-83.023501,42.431599,179
-83.023336,42.428617,DEM2019-01568,8030,,Stockton,,2019/04/29 00:00:00+00,Wrecking and remove,DETROIT LAND BANK AUTHORITY," SMALLEY CONSTRUCTION, INC (W)","SMALLEY CONSTRUCTION, INC (W)",1224 LOCUST ST,Permit Issuance,Issued,17004469,-83.023336,42.428617,180
-83.023513,42.43194,DEM2019-01569,8031,,Robinwood,,2019/04/29 00:00:00+00,Wrecking and remove,DETROIT LAND BANK AUTHORITY," SMALLEY CONSTRUCTION, INC (W)","SMALLEY CONSTRUCTION, INC (W)",1224 LOCUST ST,Permit Issuance,Issued,17004699,-83.023513,42.43194,181
-83.023405,42.432698,DEM2019-01572,8035,EAST,HOLLYWOOD, ,2019/04/29 00:00:00+00,Wrecking and remove,DETROIT LAND BANK AUTHORITY," SMALLEY CONSTRUCTION, INC (W)","SMALLEY CONSTRUCTION, INC (W)",1224 LOCUST ST,Permit Issuance,Issued,17004781,-83.023405,42.432698,182
,,DEM2019-01573,8036,EAST,HILDALE, ,2019/04/29 00:00:00+00,Wrecking and remove,DETROIT LAND BANK AUTHORITY," SMALLEY CONSTRUCTION, INC (W)","SMALLEY CONSTRUCTION, INC (W)",1224 LOCUST ST,Permit Issuance,Issued,,,,183
-83.023266,42.431939,DEM2019-01574,8043,,Robinwood,,2019/04/29 00:00:00+00,Wrecking and remove,DETROIT LAND BANK AUTHORITY," SMALLEY CONSTRUCTION, INC (W)","SMALLEY CONSTRUCTION, INC (W)",1224 LOCUST ST,Permit Issuance,Issued,17004701,-83.023266,42.431939,184
-83.023221,42.431212,DEM2019-01575,8043,,Quinn,,2019/04/29 00:00:00+00,Wrecking and remove,DETROIT LAND BANK AUTHORITY," SMALLEY CONSTRUCTION, INC (W)","SMALLEY CONSTRUCTION, INC (W)",1224 LOCUST ST,Permit Issuance,Issued,,-83.023221,42.431212,185
-83.022995,42.427849,DEM2019-01576,8044,,Emily,,2019/04/29 00:00:00+00,Wrecking and remove,DETROIT LAND BANK AUTHORITY," SMALLEY CONSTRUCTION, INC (W)","SMALLEY CONSTRUCTION, INC (W)",1224 LOCUST ST,Permit Issuance,Issued,17004423,-83.022995,42.427849,186
-83.023045,42.429767,DEM2019-01577,8049,EAST,GRIXDALE, ,2019/04/29 00:00:00+00,Wrecking and remove,DETROIT LAND BANK AUTHORITY," SMALLEY CONSTRUCTION, INC (W)","SMALLEY CONSTRUCTION, INC (W)",1224 LOCUST ST,Permit Issuance,Issued,17004522,-83.023045,42.429767,187
-83.023159,42.433067,DEM2019-01578,8050,,Brentwood,,2019/04/29 00:00:00+00,Wrecking and remove,DETORIT LAND BANK AUTHORITY," SMALLEY CONSTRUCTION, INC (W)","SMALLEY CONSTRUCTION, INC (W)",1224 LOCUST ST,Permit Issuance,Issued,17004859,-83.023159,42.433067,188
-83.023113,42.431952,DEM2019-01579,8051,EAST,ROBINWOOD, ,2019/04/29 00:00:00+00,Wrecking and remove,DETROIT LAND BANK AUTHORITY," SMALLEY CONSTRUCTION, INC (W)","SMALLEY CONSTRUCTION, INC (W)",1224 LOCUST ST,Permit Issuance,Issued,17004702,-83.023113,42.431952,189
-83.023045,42.433406,DEM2019-01580,8055,EAST,BRENTWOOD, ,2019/04/29 00:00:00+00,Wrecking and remove,DETROIT LAND BANK AUTHORITY," SMALLEY CONSTRUCTION, INC (W)","SMALLEY CONSTRUCTION, INC (W)",1224 LOCUST ST,Permit Issuance,Issued,17004867,-83.023045,42.433406,190
-83.022888,42.428625,DEM2019-01581,8056, ,STOCKTON, ,2019/04/29 00:00:00+00,Wrecking and remove,DETROIT LAND BANK AUTHORITY," SMALLEY CONSTRUCTION, INC (W)","SMALLEY CONSTRUCTION, INC (W)",1224 LOCUST ST,Permit Issuance,Issued,17004465,-83.022888,42.428625,191
-83.022806,42.429421,DEM2019-01582,8060,,Grixdale,,2019/04/29 00:00:00+00,Wrecking and remove,DETROIT LAND BANK AUTHORITY," SMALLEY CONSTRUCTION, INC (W)","SMALLEY CONSTRUCTION, INC (W)",1224 LOCUST ST,Permit Issuance,Issued,17004511,-83.022806,42.429421,192
-83.022866,42.432347,DEM2019-01583,8062,EAST,HOLLYWOOD, ,2019/04/29 00:00:00+00,Wrecking and remove,DETROIT LAND BANK AUTHORITY," SMALLEY CONSTRUCTION, INC (W)","SMALLEY CONSTRUCTION, INC (W)",1224 LOCUST ST,Permit Issuance,Issued,17004774,-83.022866,42.432347,193
-83.022611,42.43235,DEM2019-01584,8076,EAST,HOLLYWOOD, ,2019/04/29 00:00:00+00,Wreck and Remove,DETROIT LAND BANK AUTHORITY," SMALLEY CONSTRUCTION, INC (W)","SMALLEY CONSTRUCTION, INC (W)",1224 LOCUST ST,Permit Issuance,Issued,17004772,-83.022611,42.43235,194
-83.022499,42.432686,DEM2019-01585,8085,EAST,HOLLYWOOD, ,2019/04/29 00:00:00+00,Wreck and Remove,DETROIT LAND BANK AUTHORITY," SMALLEY CONSTRUCTION, INC (W)","SMALLEY CONSTRUCTION, INC (W)",1224 LOCUST ST,Permit Issuance,Issued,17004788,-83.022499,42.432686,195
-83.02231,42.431232,DEM2019-01586,8091,,Quinn,,2019/04/29 00:00:00+00,Wreck and Remove,DETROIT LAND BANK AUTHORITY," SMALLEY CONSTRUCTION, INC (W)","SMALLEY CONSTRUCTION, INC (W)",1224 LOCUST ST,Permit Issuance,Issued,17004635,-83.02231,42.431232,196
-83.022389,42.433082,DEM2019-01587,8094,EAST,BRENTWOOD, ,2019/04/29 00:00:00+00,Wreck and Remove,DETROIT LAND BANK AUTHORITY," SMALLEY CONSTRUCTION, INC (W)","SMALLEY CONSTRUCTION, INC (W)",1224 LOCUST ST,Permit Issuance,Issued,17004853,-83.022389,42.433082,197
-83.022049,42.431232,DEM2019-01589,8105,,Quinn,,2019/04/29 00:00:00+00,Wreck and Remove,DETROIT LAND BANK AUTHORITY," SMALLEY CONSTRUCTION, INC (W)","SMALLEY CONSTRUCTION, INC (W)",1224 LOCUST ST,Permit Issuance,Issued,17004637,-83.022049,42.431232,198
-83.021922,42.431231,DEM2019-01590,8111,,Quinn,,2019/04/29 00:00:00+00,Wreck and Remove,DETROIT LAND BANK AUTHORITY," SMALLEY CONSTRUCTION, INC (W)","SMALLEY CONSTRUCTION, INC (W)",1224 LOCUST ST,Permit Issuance,Issued,17004638,-83.021922,42.431231,199
-83.021906,42.428637,DEM2019-01591,8108, ,STOCKTON, ,2019/04/29 00:00:00+00,Wreck and Remove,DETROIT LAND BANK AUTHORITY," SMALLEY CONSTRUCTION, INC (W)","SMALLEY CONSTRUCTION, INC (W)",1224 LOCUST ST,Permit Issuance,Issued,17004457,-83.021906,42.428637,200
-83.266058,42.407584,DEM2019-01592,15935,,Beaverland,,2019/03/29 00:00:00+00,Wreck and Remove,DETROIT LAND BANK AUTHORITY, ,HOMRICH  WRECKING (2019),"65 CADILLAC SQ., SUITE # 2701",Permit Issuance,Issued,22118585.003,-83.266058,42.407584,201
-83.265573,42.409052,DEM2019-01593,16176, ,BEAVERLAND, ,2019/03/29 00:00:00+00,Wreck and Remove,DETROIT LAND BANK AUTHORITY, ,HOMRICH  WRECKING (2019),"65 CADILLAC SQ., SUITE # 2701",Permit Issuance,Issued,22118410,-83.265573,42.409052,202
-83.26608,42.409156,DEM2019-01594,16187,,Beaverland,,2019/03/29 00:00:00+00,Wreck and Remove,DETROIT LAND BANK AUTHORITY, ,HOMRICH  WRECKING (2019),"65 CADILLAC SQ., SUITE # 2701",Permit Issuance,Issued,22118577,-83.26608,42.409156,203
-83.266241,42.409454,DEM2019-01596,16201,,Beaverland,,2019/03/29 00:00:00+00,Wreck and Remove,DETROIT LAND BANK AUTHORITY, ,HOMRICH  WRECKING (2019),"65 CADILLAC SQ., SUITE # 2701",Permit Issuance,Issued,22118575,-83.266241,42.409454,204
-83.266226,42.40976,DEM2019-01597,16507, ,BEAVERLAND, ,2019/03/29 00:00:00+00,Wreck and Remove,DETROIT LAND BANK AUTHORITY, ,HOMRICH  WRECKING (2019),"65 CADILLAC SQ., SUITE # 2701",Permit Issuance,Issued,22118574,-83.266226,42.40976,205
-83.075706,42.382196,DEM2019-01599,329,,KING,,2019/03/25 00:00:00+00,N/A,GREATER WOODWARD CDC, ,SIMPLY CONSTRUCTION /EXCAVATING LLC,20905 MAPLERIDGE,Permit Issuance,Issued,1002799,-83.075706,42.382196,206
-83.145219,42.34648,DEM2019-01600,7325, ,BRYDEN, ,2019/04/02 00:00:00+00,Commercial wreck and remove,CHURCH OF GOD, ,DORE & ASSOCIATES CONTRACTING,900 HARRY S TRUMAN PARKWAY,Permit Issuance,Issued,,-83.145219,42.34648,207
-83.228716,42.436156,DEM2019-01601,18901, ,PEMBROKE, ,2019/03/27 00:00:00+00,Commercial Wreck and Remove,MODEST FOUNDATION INC, ADAMO DEMO (2018 W),ADAMO DEMO (2018 W),320 E 7 MILE RD,Permit Issuance,Issued,22017852,-83.228716,42.436156,208
-83.254915,42.406886,DEM2019-01602,15873, ,BURGESS, ,2019/03/29 00:00:00+00,Wreck and Remove,DETROIT LAND BANK AUTHORITY, ,HOMRICH  WRECKING (2019),"65 CADILLAC SQ., SUITE # 2701",Permit Issuance,Issued,22112295,-83.254915,42.406886,209
-83.26325,42.408056,DEM2019-01603,16138,,Chatham,,2019/03/29 00:00:00+00,Wreck and Remove,DETROIT LAND BANK AUTHORITY, ,HOMRICH  WRECKING (2019),"65 CADILLAC SQ., SUITE # 2701",Permit Issuance,Issued,22116990,-83.26325,42.408056,210
-83.263831,42.40853,DEM2019-01604,16161,,Chatham,,2019/03/29 00:00:00+00,Wreck and Remove,DETROIT LAND BANK AUTHORITY, ,HOMRICH  WRECKING (2019),"65 CADILLAC SQ., SUITE # 2701",Permit Issuance,Issued,22117131,-83.263831,42.40853,211
-83.263841,42.408668,DEM2019-01605,16171,,Chatham,,2019/03/29 00:00:00+00,Wreck and Remove,DETROIT LAND BANK AUTHORITY, ,HOMRICH  WRECKING (2019),"65 CADILLAC SQ., SUITE # 2701",Permit Issuance,Issued,22117130,-83.263841,42.408668,212
-83.263696,42.409087,DEM2019-01606,16201,,CHATHAM,,2019/03/29 00:00:00+00,Wreck and Remove,DETROIT LAND BANK AUTHORITY, ,HOMRICH  WRECKING (2019),"65 CADILLAC SQ., SUITE # 2701",Permit Issuance,Issued,22117127,-83.263696,42.409087,213
-83.263655,42.409349,DEM2019-01607,16223,,Chatham,,2019/03/29 00:00:00+00,Wreck and Remove,DETROIT LAND BANK AUTHORITY, ,HOMRICH  WRECKING (2019),"65 CADILLAC SQ., SUITE # 2701",Permit Issuance,Issued,22117125,-83.263655,42.409349,214
-83.159611,42.378857,BLD2018-08349,12214,,WASHBURN,,2020/10/19 00:00:00+00,WRECK AND REMOVE DEBRIS,CITY OF DETROIT HOUSING REVITALIZATION,,GAYANGA CO.,1420 WASHINGTON BLVD,Permit Issuance,Issued,16038987,-83.159611,42.378857,215
,,BLD2018-01224,3834,W,GRAND RIVER,,2019/03/20 00:00:00+00,WRECK AND REMOVE,3820 WEST END LLC,DIRECT CONSTRUCTION SERVICES,DIRECT CONSTRUCTION SERVICES,TIMOTHY DRAKEFORD,Permit Issuance,Issued,,,,216
-83.144885,42.36893,DEM2019-01235,9675, ,AMERICAN, ,2019/03/13 00:00:00+00,wreck and remove,DETROIT LAND BANK AUTHORITY, ,HOMRICH  WRECKING (2019),"65 CADILLAC SQ., SUITE # 2701",Permit Issuance,Issued,16024303,-83.144885,42.36893,217
,,DEM2019-00918,10975, ,LONGVIEW, ,2019/02/26 00:00:00+00,wrecking and remove,DETROIT LAND BANK AUTHORITY, ,HOMRICH  WRECKING (2019),"65 CADILLAC SQ., SUITE # 2701",Permit Issuance,Issued,,,,218
-82.975269,42.402179,BLD2018-10019,12746,,EVANSTON,,2019/01/20 00:00:00+00,WRECK AND REMOVE DEBRIS,DETROIT LAND BANK AUTHORITY, ,MCDONAGH DEMOLITION,7243 W TOUHY AVENUE,Permit Issuance,Issued,21005046,-82.975269,42.402179,219
-83.180829,42.399212,BLD2018-09688,14940,,LESURE,,2019/01/25 00:00:00+00,WRECK AND REMOVE,DETROIT LAND BANK AUTHORITY," SMALLEY CONSTRUCTION, INC (W)","SMALLEY CONSTRUCTION, INC (W)",131 S. MAIN ST,Permit Issuance,Issued,22032622,-83.180829,42.399212,220
-83.090917,42.434696,DEM2019-01355,19241, ,RUSSELL, ,2019/03/14 00:00:00+00,wreck and remove,DETROIT LAND BANK AUTHORITY, ,HOMRICH  WRECKING (2019),"65 CADILLAC SQ., SUITE # 2701",Permit Issuance,Issued,9020907,-83.090917,42.434696,221
-82.988867,42.403987,DEM2019-00919,11814, ,LONGVIEW, ,2019/02/26 00:00:00+00,Wrecking and remove,DETROIT LAND BANK AUTHORITY, ,HOMRICH  WRECKING (2019),"65 CADILLAC SQ., SUITE # 2701",Permit Issuance,Issued,21007616,-82.988867,42.403987,222
-82.942137,42.362591,BLD2018-02497,345, ,EASTLAWN, ,2019/10/10 00:00:00+00,HHF. PACKAGE RFP 4.3.18 (C)    WRECK AND REMOVE,DETROIT LAND BANK AUTHORITY, ,SALENBIEN TRUCKING AND EXCAVATING,9217 N ANN ARBOR RD,Permit Issuance,Issued,,-82.942137,42.362591,223
-83.157964,42.379365,BLD2018-08350,12323, ,KENTUCKY, ,2019/10/09 00:00:00+00,WRECK AND REMOVE,CITY OF DETROIT HOUSING & REVITALIZATION, ,GAYANGA CO,1420 WASHINGTON BLVD,Permit Issuance,Issued,16037215,-83.157964,42.379365,224
-83.154835,42.273971,DEM2019-01236,1926, ,ELECTRIC, ,2019/03/13 00:00:00+00,wreck and remove,DETROIT LAND BANK AUTHORITY, ,HOMRICH  WRECKING (2019),"65 CADILLAC SQ., SUITE # 2701",Permit Issuance,Issued,20014247,-83.154835,42.273971,225
-83.099195,42.388234,DEM2019-00193,1210, ,BURLINGAME, ,2019/01/30 00:00:00+00,WRECK AND REMOVE DEBRIS,CITY OF DETROIT HOUSING & REVITALIZATION, ,DORE & ASSOCIATES CONTRACTING,900 HARRY S TRUMAN PARKWAY,Permit Issuance,Issued,6003115,-83.099195,42.388234,226
-83.090454,42.433553,DEM2019-01356,19160, ,RUSSELL, ,2019/03/14 00:00:00+00,wreck and remove,DETROIT LAND BANK AUTHORITY, ,HOMRICH  WRECKING (2019),"65 CADILLAC SQ., SUITE # 2701",Permit Issuance,Issued,9020697,-83.090454,42.433553,227
-82.939853,42.369723,BLD2018-02507,635, ,PHILIP, ,2019/09/23 00:00:00+00,HHF. PACKAGE RFP 4.3.18 (C)        WRECK AND REMOVE,DETROIT LAND BANK AUTHORITY, ,SALENBIEN TRUCKING AND EXCAVATING,9217 N ANN ARBOR RD,Permit Issuance,Issued,21060788,-82.939853,42.369723,228
-82.993483,42.403563,DEM2019-00920,10986,,Chelsea,,2019/02/26 00:00:00+00,wrecking and remove,DETROIT LAND BANK AUTHORITY, ,HOMRICH  WRECKING (2019),"65 CADILLAC SQ., SUITE # 2701",Permit Issuance,Issued,21008040,-82.993483,42.403563,229
-83.190065,42.398975,BLD2018-09689,14937,,MARLOWE,,2019/01/25 00:00:00+00,WRECK AND REMOVE,DETROIT LAND BANK AUTHORITY," SMALLEY CONSTRUCTION, INC (W)","SMALLEY CONSTRUCTION, INC (W)",131 S. MAIN ST,Permit Issuance,Issued,22041270,-83.190065,42.398975,230
-83.167301,42.265822,DEM2019-01237,3311,,Dartmouth,,2019/03/13 00:00:00+00,wreck and remove,DETROIT LAND BANK AUTHORITY, ,HOMRICH  WRECKING (2019),"65 CADILLAC SQ., SUITE # 2701",Permit Issuance,Issued,20015656,-83.167301,42.265822,231
,,DEM2019-00198,6143,WEST,VERNOR, ,2019/01/09 00:00:00+00,WRECK AND REMOVE DEBRIS,6171 VERNOR HWY RETAIL MGMT, ,BLUE STAR INC  (2019W),21950 HOOVER,Permit Issuance,Issued,,,,232
-83.090587,42.438191,DEM2019-01357,19644,,Russell,,2019/03/14 00:00:00+00,wreck and remove,DETROIT LAND BANK AUTHORITY, ,HOMRICH  WRECKING (2019),"65 CADILLAC SQ., SUITE # 2701",Permit Issuance,Issued,9020750,-83.090587,42.438191,233
-83.160761,42.380551,BLD2018-08351,12356,,ILENE,,2020/10/26 00:00:00+00,WRECK AND REMOVE DEBRIS,CITY OF DETROIT HOUSING REVITALIZATION,,GAYANGA CO.,1420 WASHINGTON BLVD,Permit Issuance,Issued,16040015,-83.160761,42.380551,234
-83.01651,42.388726,BLD2018-10022,6432,,IROQUOIS,,2019/01/24 00:00:00+00,WRECK AND REMOVE DEBRIS,DETROIT LAND BANK AUTHORIY, ,MCDONAGH DEMOLITION,7243 W TOUHY AVENUE,Permit Issuance,Issued,17007211,-83.01651,42.388726,235
-82.949443,42.385264,BLD2018-02648,3022,,PHILIP,,2019/09/27 00:00:00+00,RFP 4.3.18E  WRECK AND REMOVE,DETROIT LAND BANK AUTHORITY, ,SALENBIEN TRUCKING AND EXCAVATING,9217 N ANN ARBOR RD,Permit Issuance,Issued,21060152,-82.949443,42.385264,236
-82.98874,42.400868,DEM2019-00921,11722, ,MAIDEN, ,2019/02/26 00:00:00+00,wrecking and remove,DETROIT LAND BANK AUTHORITY, ,HOMRICH  WRECKING (2019),"65 CADILLAC SQ., SUITE # 2701",Permit Issuance,Issued,21006540,-82.98874,42.400868,237
-82.976044,42.402332,BLD2018-09692,12711, ,EVANSTON, ,2019/01/14 00:00:00+00,WRECK AND REMOVE DEBRIS,DETROIT LAND BANK AUTHORITY," SMALLEY CONSTRUCTION, INC (W)","SMALLEY CONSTRUCTION, INC (W)",131 S. MAIN ST,Permit Issuance,Issued,21005202,-82.976044,42.402332,238
-83.117599,42.343946,DEM2019-01238,5393,,31st,,2019/03/13 00:00:00+00,wreck and remove,DETROIT LAND BANK AUTHORITY, ,HOMRICH  WRECKING (2019),"65 CADILLAC SQ., SUITE # 2701",Permit Issuance,Issued,16011096,-83.117599,42.343946,239
-83.021639,42.445351,DEM2019-00199,20213, ,VEACH, ,2019/01/16 00:00:00+00,WRECK AND REMOVE DEBRIS,DETROIT LAND BANK AUTHORITY, ,HOMRICH  WRECKING (2019),"65 CADILLAC SQ., SUITE # 2701",Permit Issuance,Issued,17016570,-83.021639,42.445351,240
-83.031076,42.436567,DEM2019-00202,19345,,CARRIE,,2019/01/16 00:00:00+00,WRECK AND REMOVE DEBRIS,DETROIT LAND BANK AUTHORITY, ,HOMRICH  WRECKING (2019),"65 CADILLAC SQ., SUITE # 2701",Permit Issuance,Issued,15008459,-83.031076,42.436567,241
,,DEM2019-00248,2411,WEST,GRAND,BOULEVARD,2019/01/11 00:00:00+00,WRECK & REMOVE 2.5 STORY COMMERCIAL STRUCTURE BACKFILL 2/CLEAN SOI.,DETROIT LAND BANK AUTHORITY, ,SJ DESIGN & CONSTRUCTION LLC,25855 LAHSER RD,Permit Issuance,Issued,,,,242
-83.131672,42.396093,DEM2019-00249,3233,,DORIS,,2019/01/25 00:00:00+00,WRECK AND REMOVE DEBRIS,DETROIT LAND BANK AUTHORITY," SMALLEY CONSTRUCTION, INC (W)","SMALLEY CONSTRUCTION, INC (W)",131 S. MAIN ST,Permit Issuance,Issued,12005184,-83.131672,42.396093,243
,,DEM2019-00279,4663, ,MT ELLIOTT, ,2019/01/17 00:00:00+00,WRECK AND REMOVE DEBRIS,CITY OF DETROIT HOUSING & REVITALIZATION, ,BLUE STAR INC,21950 HOOVER,Permit Issuance,Issued,,,,244
,,DEM2019-00280,11139, ,MACK,AVENUE,2019/01/30 00:00:00+00,WRECK AND REMOVE DEBRIS,CITY OF DETROIT, ,DORE & ASSOCIATES CONTRACTING,900 HARRY S TRUMAN PARKWAY,Permit Issuance,Issued,,,,245
,,DEM2019-00281,9391, ,MACK,AVENUE,2019/01/30 00:00:00+00,WRECK AND REMOVE DEBRIS,CITY OF DETROIT P & DD, ,DORE & ASSOCIATES CONTRACTING,900 HARRY S TRUMAN PARKWAY,Permit Issuance,Issued,,,,246
-83.087704,42.440441,DEM2019-00283,19926, ,GREELEY, ,2019/01/25 00:00:00+00,WRECK AND REMOVE DEBRIS,DETROIT LAND BANK AUTHORITY, ,HOMRICH  WRECKING (2019),"65 CADILLAC SQ., SUITE # 2701",Permit Issuance,Issued,9019336,-83.087704,42.440441,247
-83.091298,42.442466,DEM2019-00291,20103,,RUSSELL,,2019/01/25 00:00:00+00,WRECK AND REMOVE DEBRIS,DETROIT LAND BANK AUTHORITY, ,HOMRICH  WRECKING (2019),"65 CADILLAC SQ., SUITE # 2701",Permit Issuance,Issued,9020874,-83.091298,42.442466,248
-83.093347,42.44545,DEM2019-00304,20445,,HAWTHORNE,,2019/01/25 00:00:00+00,WRECK AND REMOVE DEBRIS,DETROIT LAND BANK AUTHORITY, ,HOMRICH  WRECKING (2019),"65 CADILLAC SQ., SUITE # 2701",Permit Issuance,Issued,9021703,-83.093347,42.44545,249
,,DEM2019-00319,20131,,HULL,,2019/01/25 00:00:00+00,WRECK AND REMOVE DEBRIS,DETROIT LAND BANK AUTHORITY, ,HOMRICH  WRECKING (2019),"65 CADILLAC SQ., SUITE # 2701",Permit Issuance,Issued,,,,250
-83.244104,42.420182,DEM2019-00333,17577, ,FIELDING, ,2019/01/23 00:00:00+00,WRECK AND REMOVE DEBRIS,DETROIT LAND BANK AUTHORITY, ,"RICKMAN ENTERPRISE GROUP, LLC",15533 WOODROW WILSON,Permit Issuance,Issued,22102977,-83.244104,42.420182,251
-83.251764,42.41871,DEM2019-00350,21331,,SANTA CLARA,,2019/01/23 00:00:00+00,WRECK AND REMOVE DEBRIS,HUD, ,"RICKMAN ENTERPRISE GROUP, LLC",15533 WOODROW WILSON,Permit Issuance,Issued,22014342,-83.251764,42.41871,252
-83.256979,42.423139,DEM2019-00355,18281,,GREYDALE,,2019/01/23 00:00:00+00,WRECK AND REMOVE DEBRIS,DETROIT LAND BANK AUTHORITY, ,"RICKMAN ENTERPRISE GROUP, LLC",15533 WOODROW WILSON,Permit Issuance,Issued,22112889,-83.256979,42.423139,253
-83.241795,42.423013,DEM2019-00367,18199,,KENTFIELD,,2019/01/23 00:00:00+00,WRECK AND REMOVE DEBRIS,DETROIT LAND BANK AUTHORITY, ,"RICKMAN ENTERPRISE GROUP, LLC",15533 WOODROW WILSON,Permit Issuance,Issued,22100584,-83.241795,42.423013,254
-83.026912,42.407968,DEM2019-00382,7160, ,PALMETTO, ,2019/02/28 00:00:00+00,WRECK AND REMOVE DEBRIS,CITY OF DETROIT HOUSING & REVITALIZATION, ,DMC CONSULTANTS INC   2019 (W),13500 FOLEY,Permit Issuance,Issued,15002885,-83.026912,42.407968,255
-83.026799,42.407973,DEM2019-00383,7164,,PALMETTO,,2019/02/28 00:00:00+00,WRECK AND REMOVE DEBRIS,DETROIT LAND BANK AUTHORITY, ,DMC CONSULTANTS INC   2019 (W),13500 FOLEY,Permit Issuance,Issued,15002884,-83.026799,42.407973,256
-83.120908,42.309821,DEM2019-00384,7318, ,CAHALAN, ,2019/01/22 00:00:00+00,WRECK AND REMOVE DEBRIS,CITY OF DETROIT HOUSING & REVITALIZATION, ,DMC CONSULTANTS INC   2019 (W),13500 FOLEY,Permit Issuance,Issued,18000975,-83.120908,42.309821,257
-83.045631,42.420286,DEM2019-00385,17185, ,SYRACUSE, ,2019/02/28 00:00:00+00,WRECK AND REMOVE DEBRIS,CITY OF DETROIT HOUSING & REVITALIZATION, ,DMC CONSULTANTS INC   2019 (W),13500 FOLEY,Permit Issuance,Issued,13013921,-83.045631,42.420286,258
-83.040859,42.35869,DEM2019-00386,4169, ,ST AUBIN, ,2019/01/25 00:00:00+00,WRECK AND REMOVE DEBRIS,CITY OF DETROIT HOUSING REVITALIZATION, ADAMO DEMO (2018 W),ADAMO DEMO (2018 W),320 E 7 MILE RD,Permit Issuance,Issued,9004947,-83.040859,42.35869,259
-83.098784,42.419665,DEM2019-00388,159,EAST,ARIZONA, ,2019/02/04 00:00:00+00,WRECK AND REMOVE DEBRIS,CITY OF DETROIT HOUSING & REVITALIZATION, ADAMO DEMO (2018 W),ADAMO DEMO (2018 W),320 E 7 MILE RD,Permit Issuance,Issued,1004615,-83.098784,42.419665,260
-83.030182,42.362589,DEM2019-00389,3313, ,SUPERIOR, ,2019/05/08 00:00:00+00,WRECK AND REMOVE DEBRIS,DETROIT LAND BANK AUTHORITY, ,SALENBIEN TRUCKING AND EXCAVATING,9217 N ANN ARBOR RD,Permit Issuance,Issued,13002110,-83.030182,42.362589,261
-83.030546,42.341356,DEM2019-00391,1100,,ST AUBIN,,2019/01/22 00:00:00+00,wreck and remove 2 story building as indicated on plans.,LAFAYETTE PARK LAND OWNER, ,BLUE STAR INC  (2019W),21950 HOOVER,Permit Issuance,Issued,,-83.030546,42.341356,262
-83.081256,42.413115,DEM2019-00392,14039, ,ORLEANS, ,2019/01/30 00:00:00+00,WRECK AND REMOVE,CITY OF DETROIT HOUSING & REVITALIZATION, ,"RICKMAN ENTERPRISE GROUP, LLC",15533 WOODROW WILSON,Permit Issuance,Issued,9018257,-83.081256,42.413115,263
-83.125032,42.364608,DEM2019-00393,8884,,CLARENDON,,2019/01/30 00:00:00+00,WRECK AND REMOVE,CITY OF DETROIT HOUSING & REVITALIZATION, ,"RICKMAN ENTERPRISE GROUP, LLC",15533 WOODROW WILSON,Permit Issuance,Issued,14007434,-83.125032,42.364608,264
-83.012073,42.377444,DEM2019-00394,5074, ,PARKER, ,2019/01/30 00:00:00+00,WRECK AND REMOVE,CITY OF DETROIT HOUSING & REVITALIZATION, ,DORE & ASSOCIATES CONTRACTING,900 HARRY S TRUMAN PARKWAY,Permit Issuance,Issued,17008881,-83.012073,42.377444,265
,,DEM2019-00445,13094, ,WADE, ,2019/02/07 00:00:00+00,WRECK AND REMOVE,DETROIT LAND BANK AUTHORITY, ,SALENBIEN TRUCKING AND EXCAVATING,9217 N ANN ARBOR RD,Permit Issuance,Issued,,,,266
-82.966281,42.402384,DEM2019-00457,5993, ,NEWPORT, ,2019/09/27 00:00:00+00,WRECK AND REMOVE,DETROIT LAND BANK AUTHORITY, ,SALENBIEN TRUCKING AND EXCAVATING,9217 N ANN ARBOR RD,Permit Issuance,Issued,21053991,-82.966281,42.402384,267
-82.980457,42.408046,DEM2019-00461,12636,,CHELSEA,,2019/02/07 00:00:00+00,WRECK AND REMOVE,DETROIT LAND BANK AUTHORITY, ,SALENBIEN TRUCKING AND EXCAVATING,9217 N ANN ARBOR RD,Permit Issuance,Issued,21007919,-82.980457,42.408046,268
-82.966062,42.400812,DEM2019-00464,5814, ,EASTLAWN, ,2019/09/27 00:00:00+00,WRECK AND REMOVE,DETROIT LAND BANK AUTHORITY, ,SALENBIEN TRUCKING AND EXCAVATING,9217 N ANN ARBOR RD,Permit Issuance,Issued,21053103,-82.966062,42.400812,269
-82.979926,42.404375,DEM2019-00466,12547, ,MAIDEN, ,2019/02/07 00:00:00+00,WRECK AND REMOVE,DETROIT LAND BANK AUTHORITY, ,SALENBIEN TRUCKING AND EXCAVATING,9217 N ANN ARBOR RD,Permit Issuance,Issued,21006652,-82.979926,42.404375,270
-82.969431,42.406229,DEM2019-00469,13427, ,CAMDEN, ,2019/09/27 00:00:00+00,WRECK AND REMOVE,DETROIT LAND BANK AUTHORITY, ,SALENBIEN TRUCKING AND EXCAVATING,9217 N ANN ARBOR RD,Permit Issuance,Issued,21005973,-82.969431,42.406229,271
-82.978066,42.409352,DEM2019-00470,12829,,CHELSEA,,2019/02/07 00:00:00+00,WRECK AND REMOVE,DETROIT LAND BANK AUTHORITY, ,SALENBIEN TRUCKING AND EXCAVATING,9217 N ANN ARBOR RD,Permit Issuance,Issued,21008200,-82.978066,42.409352,272
-82.972632,42.413072,DEM2019-00472,14218,,PROMENADE,,2019/02/07 00:00:00+00,WRECK AND REMOVE,DETROIT LAND BANK AUTHORITY, ,SALENBIEN TRUCKING AND EXCAVATING,9217 N ANN ARBOR RD,Permit Issuance,Issued,21008768,-82.972632,42.413072,273
-82.9698,42.414104,DEM2019-00476,14425,,PROMENADE,,2019/09/30 00:00:00+00,WRECK AND REMOVE,DETROIT LAND BANK AUTHORITY, ,SALENBIEN TRUCKING AND EXCAVATING,9217 N ANN ARBOR RD,Permit Issuance,Issued,21009142,-82.9698,42.414104,274
-82.966389,42.41013,DEM2019-00486,14900, ,ELMDALE, ,2019/09/27 00:00:00+00,WRECK AND REMOVE,DETROIT LAND BANK AUTHORITY, ,SALENBIEN TRUCKING AND EXCAVATING,9217 N ANN ARBOR RD,Permit Issuance,Issued,21007113,-82.966389,42.41013,275
-82.981189,42.412307,DEM2019-00488,12762, ,ROSEMARY, ,2019/09/30 00:00:00+00,WRECK AND REMOVE,DETROIT LAND BANK AUTHORITY, ,SALENBIEN TRUCKING AND EXCAVATING,9217 N ANN ARBOR RD,Permit Issuance,Issued,21009519,-82.981189,42.412307,276
-82.981124,42.409457,DEM2019-00491,12645, ,WILSHIRE, ,2019/09/30 00:00:00+00,WRECK AND REMOVE,DETROIT LAND BANK AUTHORITY, ,SALENBIEN TRUCKING AND EXCAVATING,9217 N ANN ARBOR RD,Permit Issuance,Issued,,-82.981124,42.409457,277
,,DEM2019-00572,11374,,BROADSTREET,,2020/10/05 00:00:00+00,WRECK AND REMOVE,CITY OF DETROIT HOUSING & REVITALIZATION,,DMC CONSULTANTS INC   2019 (W),13500 FOLEY,Permit Issuance,Issued,,,,278
-82.988359,42.431643,DEM2019-00605,18622, ,ALCOY, ,2019/01/30 00:00:00+00,WRECK AND REMOVE       4.5.18 G,CITY OF DETROIT HOUSING & REVITALIZATION, ,DMC CONSULTANTS INC   2019 (W),13500 FOLEY,Permit Issuance,Issued,21015633.001,-82.988359,42.431643,279
-82.989644,42.376241,DEM2019-00634,3828, ,BEWICK, ,2019/01/28 00:00:00+00,WRECKING,NATHANAEL EGGER, ,GAYANGA CO. (2018 WRCK),1420 WASHINGTON BLVD,Permit Issuance,Issued,21037124,-82.989644,42.376241,280
-82.98989,42.376611,DEM2019-00635,3854, ,BEWICK, ,2019/01/28 00:00:00+00,"WRECKING 
TWO (2) FAMILY DWELLING",NATHANAEL EGGER, ,GAYANGA CO. (2018 WRCK),1420 WASHINGTON BLVD,Permit Issuance,Issued,21037129,-82.98989,42.376611,281
-83.092169,42.428209,DEM2019-00636,18510, ,HAWTHORNE, ,2019/04/24 00:00:00+00,WRECK AND REMOVE     10.30.18 F,DETROIT LAND BANK AUTHORITY, ,"RICKMAN ENTERPRISE GROUP, LLC",15533 WOODROW WILSON,Permit Issuance,Issued,,-83.092169,42.428209,282
-83.091451,42.425136,DEM2019-00644,1141,,NEVADA,,2019/12/05 00:00:00+00,WRECK AND REMOVE     10.30.18 F,DETROIT LAND BANK AUTHORITY, ,"RICKMAN ENTERPRISE GROUP, LLC",15533 WOODROW WILSON,Permit Issuance,Issued,9006889,-83.091451,42.425136,283
-83.090806,42.425577,DEM2019-00645,18036,,CARDONI,,2019/04/24 00:00:00+00,WRECK AND REMOVE     10.30.18 F,DETROIT LAND BANK AUTHORITY, ,"RICKMAN ENTERPRISE GROUP, LLC",15533 WOODROW WILSON,Permit Issuance,Issued,9021097,-83.090806,42.425577,284
-82.981202,42.367618,DEM2019-00654,2209, ,ST CLAIR, ,2019/02/12 00:00:00+00,WRECK & REMOVE DEBRIS,CITY OF DETROIT HOUSING & REVITALIZATION DEPT, ,"RICKMAN ENTERPRISE GROUP, LLC",15533 WOODROW WILSON,Permit Issuance,Issued,21039086,-82.981202,42.367618,285
-82.95466,42.378588,DEM2019-00655,2501, ,COPLIN, ,2019/02/13 00:00:00+00,WRECK & REMOVE DEBRIS,CITY OF DETROIT HOUSING & REVITALIZATION DEPT, ADAMO DEMO (2018 W),ADAMO DEMO (2018 W),320 E 7 MILE RD,Permit Issuance,Issued,21051735,-82.95466,42.378588,286
-82.9547,42.378652,DEM2019-00656,2503, ,COPLIN, ,2019/02/13 00:00:00+00,WRECK & REMOVE DEBRIS,CITY OF DETROIT HOUSING & REVITALIZATION  DEPT, ADAMO DEMO (2018 W),ADAMO DEMO (2018 W),320 E 7 MILE RD,Permit Issuance,Issued,21051734,-82.9547,42.378652,287
-83.163543,42.372105,DEM2019-00657,10384, ,AURORA, ,2019/02/12 00:00:00+00,WRECK & REMOVE DEBRIS,CITY OF DETROIT HOUSING & REVITALIZATION DEPT, ,"RICKMAN ENTERPRISE GROUP, LLC",15533 WOODROW WILSON,Permit Issuance,Issued,18006500,-83.163543,42.372105,288
-83.165371,42.377848,DEM2019-00658,10514, ,FOLEY, ,2019/02/12 00:00:00+00,WRECK & REMOVE DEBRIS,CITY OF DETROIT HOUSING & REVITALIZATION DEPT, ,"RICKMAN ENTERPRISE GROUP, LLC",15533 WOODROW WILSON,Permit Issuance,Issued,18006711,-83.165371,42.377848,289
-83.165467,42.377937,DEM2019-00659,10522, ,FOLEY, ,2019/02/12 00:00:00+00,WRECK & REMOVE DEBRIS,CITY OF DETROIT HOUSING & REVITALIZATION DEPT, ,"RICKMAN ENTERPRISE GROUP, LLC",15533 WOODROW WILSON,Permit Issuance,Issued,18006712,-83.165467,42.377937,290
-83.159025,42.369624,DEM2019-00660,10027, ,MAPLELAWN, ,2019/02/12 00:00:00+00,WRECK & REMOVE DEBRIS,CITY OF DETROIT HOUSING & REVITALIZATION DEPT, ,"RICKMAN ENTERPRISE GROUP, LLC",15533 WOODROW WILSON,Permit Issuance,Issued,18006158,-83.159025,42.369624,291
-83.076643,42.377428,DEM2019-00700,60,EAST,EUCLID, ,2019/02/15 00:00:00+00,WRECK AND REMOVE DEBRIS,DETROIT BLACK COMMUNITY FOOD SECURI, ,"RICKMAN ENTERPRISE GROUP, LLC",15533 WOODROW WILSON,Permit Issuance,Issued,1002534,-83.076643,42.377428,292
-83.105342,42.441721,DEM2019-00701,20055, ,EXETER, ,2019/02/06 00:00:00+00,WRECK AND REMOVE DEBRIS,CITY OF DETROIT HOUSING & REVITALIZATION, ADAMO DEMO (2018 W),ADAMO DEMO (2018 W),320 E 7 MILE RD,Permit Issuance,Issued,9024934,-83.105342,42.441721,293
-83.140961,42.388835,DEM2019-00705,13665, ,STOEPEL, ,2019/02/06 00:00:00+00,WRECK AND REMOVE DEBRIS,DETROIT LAND BANK AUTHORITY," SMALLEY CONSTRUCTION, INC (W)","SMALLEY CONSTRUCTION, INC (W)",131 S. MAIN ST,Permit Issuance,Issued,16019634,-83.140961,42.388835,294
-83.106845,42.443364,DEM2019-00706,20190, ,CHARLESTON, ,2019/02/12 00:00:00+00,WRECK AND REMOVE DEBRIS,CITY OF DETROIT HOUSING REVITALIZATION, ,"RICKMAN ENTERPRISE GROUP, LLC",15533 WOODROW WILSON,Permit Issuance,Issued,9025065,-83.106845,42.443364,295
,,DEM2019-00709,1560,WEST,GRAND,BOULEVARD,2019/02/12 00:00:00+00,WRECK AND REMOVE DEBRIS,CITY OF DETROIT HOUSING REVITALIZATION, ,"RICKMAN ENTERPRISE GROUP, LLC",15533 WOODROW WILSON,Permit Issuance,Issued,,,,296
,,DEM2019-00710,4153,WEST,WARREN,AVENUE,2019/02/12 00:00:00+00,WRECK AND REMOVE,CITY OF DETROIT HOUSING & REVITALIZATION, ,"RICKMAN ENTERPRISE GROUP, LLC",15533 WOODROW WILSON,Permit Issuance,Issued,,,,297
-82.956581,42.432527,DEM2019-00711,15875, ,FAIRCREST, ,2019/03/18 00:00:00+00,WRECK AND REMOVE          9.18.18 (I),DETROIT LAND BANK AUTHORITY," SMALLEY CONSTRUCTION, INC (W)","SMALLEY CONSTRUCTION, INC (W)",131 S. MAIN ST,Permit Issuance,Issued,21018939,-82.956581,42.432527,298
-83.146168,42.340227,DEM2019-00727,7780, ,DAYTON, ,2019/03/18 00:00:00+00,WRECK AND REMOVE      9.18.18 (H),DETROIT LAND BANK AUTHORITY," SMALLEY CONSTRUCTION, INC (W)","SMALLEY CONSTRUCTION, INC (W)",131 S. MAIN ST,Permit Issuance,Issued,20009915,-83.146168,42.340227,299
-83.235262,42.428632,DEM2019-00746,19000, ,ANNCHESTER, ,2019/03/18 00:00:00+00,WRECK AND REMOVE     9.18.18 (B),DETROIT LAND BANK AUTHORITY," SMALLEY CONSTRUCTION, INC (W)","SMALLEY CONSTRUCTION, INC (W)",131 S. MAIN ST,Permit Issuance,Issued,22091803,-83.235262,42.428632,300
-83.030741,42.422459,DEM2019-00797,6850, ,EDGETON, ,2019/02/08 00:00:00+00,WRECK AND REMOVE,CITY OF DETROIT HOUSING & REVITALIZATION, ,LEADHEAD CONSTRUCTION LLC,41617 CUMMINGS LANE,Permit Issuance,Issued,,-83.030741,42.422459,301
-83.125707,42.347217,DEM2019-00798,6086, ,EPWORTH, ,2019/02/08 00:00:00+00,WRECK AND REMOVE DEBRIS,CITY OF DETROIT HOUSING & REVITALIZATION, ,LEADHEAD CONSTRUCTION LLC,41617 CUMMINGS LANE,Permit Issuance,Issued,16014749,-83.125707,42.347217,302
,,DEM2019-00827,2124,EAST,HANCOCK, ,2019/02/08 00:00:00+00,WRECK AND REMOVE,SELKIRK ASSOCIATES LLC," ABLE DEMOLITION, INC 2018","ABLE DEMOLITION, INC 2018",400 RENAISSANCE,Permit Issuance,Issued,,,,303
,,DEM2019-00828,1976,EAST,HANCOCK, ,2019/02/08 00:00:00+00,WRECK AND REMOVE,PONTCHARTRAIN LAND CO LLC," ABLE DEMOLITION, INC 2018","ABLE DEMOLITION, INC 2018",400 RENAISSANCE,Permit Issuance,Issued,,,,304
-82.986069,42.405381,DEM2019-00829,12111, ,LONGVIEW, ,2019/02/13 00:00:00+00,Wrecking and remove,DETROIT LAND BANK AUTHORITY, ,BLUE STAR INC  (2019W),21950 HOOVER,Permit Issuance,Issued,21007701,-82.986069,42.405381,305
-82.988617,42.40796,DEM2019-00830,12067, ,PROMENADE, ,2019/02/13 00:00:00+00,wrecking and remove,DETROIT LAND BANK AUTHORITY, ,BLUE STAR INC  (2019W),21950 HOOVER,Permit Issuance,Issued,21009007,-82.988617,42.40796,306
-82.984038,42.409573,DEM2019-00831,12503, ,PROMENADE, ,2019/02/13 00:00:00+00,wrecking and remove,DETROIT LAND BANK AUTHORITY, ,BLUE STAR INC  (2019W),21950 HOOVER,Permit Issuance,Issued,21009042,-82.984038,42.409573,307
-82.981202,42.410547,DEM2019-00832,12711, ,PROMENADE, ,2019/02/13 00:00:00+00,wrecking and remove,DETROIT LAND BANK AUTHORITY, ,BLUE STAR INC  (2019W),21950 HOOVER,Permit Issuance,Issued,21009064,-82.981202,42.410547,308
-82.98379,42.409641,DEM2019-00833,12519, ,PROMENADE, ,2019/02/13 00:00:00+00,wrecking and remove,DETROIT LAND BANK AUTHORITY, ,BLUE STAR INC  (2019W),21950 HOOVER,Permit Issuance,Issued,21009044,-82.98379,42.409641,309
-82.987769,42.404913,DEM2019-00834,12017, ,LONGVIEW, ,2019/02/13 00:00:00+00,wrecking and remove,DETROIT LAND BANK AUTHORITY, ,BLUE STAR INC  (2019W),21950 HOOVER,Permit Issuance,Issued,21007689,-82.987769,42.404913,310
-82.979788,42.408762,DEM2019-00835,12729, ,CHELSEA, ,2019/02/13 00:00:00+00,wrecking and remove,DETROIT LAND BANK AUTHORITY, ,BLUE STAR INC  (2019W),21950 HOOVER,Permit Issuance,Issued,21008185,-82.979788,42.408762,311
,,DEM2019-00836,13018, ,WADE, ,2019/02/13 00:00:00+00,wrecking and remove,DETROIT LAND BANK AUTHORITY, ,BLUE STAR INC  (2019W),21950 HOOVER,Permit Issuance,Issued,,,,312
-82.983946,42.405673,DEM2019-00837,12256, ,LONGVIEW, ,2019/02/13 00:00:00+00,wrecking and remove,DETROIT LAND BANK AUTHORITY, ,BLUE STAR INC  (2019W),21950 HOOVER,Permit Issuance,Issued,21007582,-82.983946,42.405673,313
-82.986353,42.406478,DEM2019-00838,12131, ,CHELSEA, ,2019/02/13 00:00:00+00,Wrecking and remove,DETROIT LAND BANK AUTHORITY, ,BLUE STAR INC  (2019W),21950 HOOVER,Permit Issuance,Issued,21008128,-82.986353,42.406478,314
-82.97423,42.404209,DEM2019-00839,13002, ,CAMDEN, ,2019/02/13 00:00:00+00,wrecking and remove,DETROIT LAND BANK AUTHORITY, ,BLUE STAR INC  (2019W),21950 HOOVER,Permit Issuance,Issued,21005733,-82.97423,42.404209,315
-82.980614,42.410745,DEM2019-00841,12745, ,PROMENADE, ,2019/02/13 00:00:00+00,wreck and remove,DETROIT LAND BANK AUTHORITY, ,BLUE STAR INC  (2019W),21950 HOOVER,Permit Issuance,Issued,21009069,-82.980614,42.410745,316
-82.974541,42.405829,DEM2019-00842,13030, ,MAIDEN, ,2019/02/13 00:00:00+00,Wrecking and remove,DETROIT LAND BANK AUTHORITY, ,BLUE STAR INC  (2019W),21950 HOOVER,Permit Issuance,Issued,21006429,-82.974541,42.405829,317
-82.981309,42.41448,DEM2019-00843,12822, ,GLENFIELD, ,2019/02/13 00:00:00+00,wreck and remove,DETROIT LAND BANK AUTHORITY, ,BLUE STAR INC  (2019W),21950 HOOVER,Permit Issuance,Issued,21010477,-82.981309,42.41448,318
-82.974375,42.403701,DEM2019-00844,12837, ,HAMPSHIRE, ,2019/02/13 00:00:00+00,WRECKING AND REMOVE,DETROIT LAND BANK AUTHORITY, ,BLUE STAR INC  (2019W),21950 HOOVER,Permit Issuance,Issued,21005596,-82.974375,42.403701,319
-82.973833,42.402616,DEM2019-00845,12830, ,EVANSTON, ,2019/02/13 00:00:00+00,WRECKING AND REMOVE,DETROIT LAND BANK AUTHORITY, ,BLUE STAR INC  (2019W),21950 HOOVER,Permit Issuance,Issued,21005034,-82.973833,42.402616,320
-82.977686,42.411348,DEM2019-00846,13050, ,PROMENADE, ,2019/02/13 00:00:00+00,WRECKING AND REMOVE,DETROIT LAND BANK AUTHORITY, ,BLUE STAR INC  (2019W),21950 HOOVER,Permit Issuance,Issued,21008803,-82.977686,42.411348,321
-82.983848,42.413564,DEM2019-00848,12644, ,GLENFIELD, ,2019/02/13 00:00:00+00,WRECKING AND REMOVE,DETROIT LAND BANK AUTHORITY, ,BLUE STAR INC  (2019W),21950 HOOVER,Permit Issuance,Issued,21010494,-82.983848,42.413564,322
-82.985641,42.40672,DEM2019-00849,12209, ,CHELSEA, ,2019/02/13 00:00:00+00,WRECK AND REMOVE,DETROIT LAND BANK AUTHORITY, ,BLUE STAR INC  (2019W),21950 HOOVER,Permit Issuance,Issued,21008132,-82.985641,42.40672,323
-82.983002,42.405986,DEM2019-00850,12312, ,LONGVIEW, ,2019/02/13 00:00:00+00,WRECK AND REMOVE,DETROIT LAND BANK AUTHORITY, ,BLUE STAR INC  (2019W),21950 HOOVER,Permit Issuance,Issued,21007575,-82.983002,42.405986,324
-82.993883,42.373419,DEM2019-00900,9349, ,EMMONS, ,2019/03/01 00:00:00+00,WRECK AND REMOVE,CITY OF DETROIT HOUSING & REVIATALIZATION, ,GAYANGA CO. (2018 WRCK),1420 WASHINGTON BLVD,Permit Issuance,Issued,19000955,-82.993883,42.373419,325
-83.078597,42.443875,DEM2019-00901,20192, ,FLEMING, ,2019/03/01 00:00:00+00,WRECK AND REMOVE,CITY OF DETROIT HOUSING & REVITALIZATION, ,GAYANGA CO. (2018 WRCK),1420 WASHINGTON BLVD,Permit Issuance,Issued,,-83.078597,42.443875,326
-83.025964,42.408007,DEM2019-00902,7512, ,PALMETTO, ,2019/03/01 00:00:00+00,NA,CITY OF DETROIT HOUSING & REVITALIZATION, ,GAYANGA CO. (2018 WRCK),1420 WASHINGTON BLVD,Permit Issuance,Issued,15002878,-83.025964,42.408007,327
-82.992774,42.40542,DEM2019-00904,11109, ,WILSHIRE, ,2019/02/26 00:00:00+00,WRECK AND REMOVE,DETROIT LAND BANK AUTHORITY, ,HOMRICH  WRECKING (2019),"65 CADILLAC SQ., SUITE # 2701",Permit Issuance,Issued,21008526,-82.992774,42.40542,328
-82.990408,42.401693,DEM2019-00908,11237, ,CORBETT, ,2019/02/26 00:00:00+00,Wreck and remove,DETROIT LAND BANK AUTHORITY, ,HOMRICH  WRECKING (2019),"65 CADILLAC SQ., SUITE # 2701",Permit Issuance,Issued,21006938,-82.990408,42.401693,329
-82.995822,42.404946,DEM2019-00909,11066, ,PROMENADE, ,2019/02/26 00:00:00+00,wrecking and remove,DETROIT LAND BANK AUTHORITY, ,HOMRICH  WRECKING (2019),"65 CADILLAC SQ., SUITE # 2701",Permit Issuance,Issued,21008940,-82.995822,42.404946,330
-82.994286,42.403279,DEM2019-00910,10940, ,CHELSEA, ,2019/02/26 00:00:00+00,Wreck and remove,DETROIT LAND BANK AUTHORITY, ,HOMRICH  WRECKING (2019),"65 CADILLAC SQ., SUITE # 2701",Permit Issuance,Issued,21008048,-82.994286,42.403279,331
-82.988862,42.398632,DEM2019-00911,11375,,EVANSTON,,2019/02/26 00:00:00+00,WRECK AND REMOVE,DETROIT LAND BANK AUTHORITY, ,HOMRICH  WRECKING (2019),"65 CADILLAC SQ., SUITE # 2701",Permit Issuance,Issued,21005133,-82.988862,42.398632,332
-82.987805,42.399859,DEM2019-00913,11737, ,CAMDEN, ,2019/02/26 00:00:00+00,wrecking and remove,DETROIT LAND BANK AUTHORITY, ,HOMRICH  WRECKING (2019),"65 CADILLAC SQ., SUITE # 2701",Permit Issuance,Issued,21005851,-82.987805,42.399859,333
-82.99439,42.404323,DEM2019-00914,10990,,Wilshire,,2019/02/26 00:00:00+00,wreck and remove,DETROIT LAND BANK AUTHORITY, ,HOMRICH  WRECKING (2019),"65 CADILLAC SQ., SUITE # 2701",Permit Issuance,Issued,21008496,-82.99439,42.404323,334
-82.992069,42.404053,DEM2019-00915,11072, ,CHELSEA, ,2019/02/26 00:00:00+00,Wrecking and remove,DETROIT LAND BANK AUTHORITY, ,HOMRICH  WRECKING (2019),"65 CADILLAC SQ., SUITE # 2701",Permit Issuance,Issued,21008026,-82.992069,42.404053,335
-83.217375,42.439402,BLD2018-10034,20021,,ARCHDALE,,2019/01/23 00:00:00+00,"PROPERTY LIST10.2.18C  
WRECK AND REMOVE",DETROIT LAND BANK AUTHORITY, ,MCDONAGH DEMOLITION,7243 W TOUHY AVENUE,Permit Issuance,Issued,22071586,-83.217375,42.439402,336
-83.193406,42.398877,BLD2018-09693,14940,,COYLE,,2019/01/25 00:00:00+00,WRECK AND REMOVE,DETROIT LAND BANK AUTHORITY," SMALLEY CONSTRUCTION, INC (W)","SMALLEY CONSTRUCTION, INC (W)",1224 LOCUST,Permit Issuance,Issued,22044954,-83.193406,42.398877,337
-83.085042,42.433467,DEM2019-01358,19138,,ORLEANS,,2019/03/14 00:00:00+00,wreck and remove,DETROIT LAND BANK AUTHORITY, ,HOMRICH  WRECKING (2019),"65 CADILLAC SQ., SUITE # 2701",Permit Issuance,Issued,9017862,-83.085042,42.433467,338
-82.932833,42.391905,BLD2018-02649,3468,,THREE MILE,DRIVE,2019/09/13 00:00:00+00,RFP 4.3.18E        WRECK AND REMOVE,DETROIT LAND BANK AUTHORITY, ,SALENBIEN TRUCKING AND EXCAVATING,9217 N ANN ARBOR RD,Permit Issuance,Issued,21071068,-82.932833,42.391905,339
,,BLD2018-08352,12389,,NORTHLAWN,,2020/10/19 00:00:00+00,WRECK AND REMOVE,CITY OF DETROIT HOUSING REVITALIZATION,,GAYANGA CO.,1420 WASHINGTON BLVD,Permit Issuance,Issued,,,,340
-83.162804,42.381019,BLD2018-08353,12620,,BIRWOOD,,2019/08/01 00:00:00+00,WRECK AND REMOVE,CITY OF DETROIT HOUSING & REVITALIZATION,McKinney Brian,GAYANGA CO,1420 WASHINGTON BLVD,Permit Issuance,Issued,16041830,-83.162804,42.381019,341
-83.16173,42.381261,BLD2018-08357,12636,,GRIGGS,,2019/08/01 00:00:00+00,WRECK AND REMOVE DEBRIS,CITY OF DETROIT HOUSING & REVITALIZATION,McKinney Brian,GAYANGA CO,1420 WASHINGTON BLVD,Permit Issuance,Issued,16040982,-83.16173,42.381261,342
-83.149372,42.381758,BLD2018-08359,12648, ,GREENLAWN, ,2019/07/25 00:00:00+00,WRECK AND REMOVE,CITY OF DETROIT HOUSING & REVITALIZATION, ,GAYANGA CO,1420 WASHINGTON BLVD,Permit Issuance,Issued,16029200,-83.149372,42.381758,343
-83.150327,42.381792,BLD2018-08367,12652,,ROSELAWN,,2019/07/25 00:00:00+00,WRECK AND REMOVE,CITY OF DETROIT HOUSING & REVITALIZATION, ,GAYANGA CO,1420 WASHINGTON BLVD,Permit Issuance,Issued,16030159,-83.150327,42.381792,344
-83.151404,42.382048,BLD2018-08368,12674, ,CLOVERLAWN, ,2019/07/25 00:00:00+00,WRECK AND REMOVE,CITY OF DETROIT HOUSING & REVITALIZATION, ,GAYANGA CO,1420 WASHINGTON BLVD,Permit Issuance,Issued,16031104,-83.151404,42.382048,345
-83.164482,42.381852,BLD2018-08369,12683,,MENDOTA,,2019/08/07 00:00:00+00,WRECK AND REMOVE,CITY OF DETROIT HOUSING & DEV DEPT,McKinney Brian,GAYANGA CO,1420 WASHINGTON BLVD,Permit Issuance,Issued,16043596,-83.164482,42.381852,346
-83.150329,42.382799,BLD2018-08370,12728,,ROSELAWN,,2019/08/07 00:00:00+00,WRECK AND REMOVE,CITY OF DETROIT HOUSING & DEV DEPT,McKinney Brian,GAYANGA CO,1420 WASHINGTON BLVD,Permit Issuance,Issued,16030170,-83.150329,42.382799,347
-83.166054,42.383227,BLD2018-08372,12788,,MONTE VISTA,,2019/09/25 00:00:00+00,WRECK AND REMOVE,DETROIT LAND BANK AUTHORITY, ,GAYANGA CO,1420 WASHINGTON BLVD,Permit Issuance,Issued,16044512,-83.166054,42.383227,348
,,BLD2018-08887,10474, ,KNODELL, ,2019/10/18 00:00:00+00,***9.19.18A***   WRECK AND REMOVE,CITY OF DETROIT HOUSING & REVITALIZATION, ,GAYANGA CO,1420 WASHINGTON BLVD,Permit Issuance,Issued,,,,349
-83.001684,42.394194,BLD2018-08888,6530,,BEWICK,,2019/10/23 00:00:00+00,***9.19.18A***    WRECK AND REMOVE,CITY OF DETROIT HOUSING & REVITALIZATION, ,GAYANGA CO,1420 WASHINGTON BLVD,Permit Issuance,Issued,19003651,-83.001684,42.394194,350
-83.001749,42.394268,BLD2018-08889,6536, ,BEWICK, ,2019/10/18 00:00:00+00,***9.19.18A***WRECK AND REMOVE,DETROIT LAND BANK AUTHORITY, ,GAYANGA CO,1420 WASHINGTON BLVD,Permit Issuance,Issued,19003652,-83.001749,42.394268,351
-83.001693,42.39436,BLD2018-08890,6540, ,BEWICK, ,2019/10/18 00:00:00+00,***9.19.18A***,CITY OF DETROIT HOUSING & REVITALIZATION, ,GAYANGA CO,1420 WASHINGTON BLVD,Permit Issuance,Issued,19003653,-83.001693,42.39436,352
-83.025517,42.397882,BLD2018-08891,7340,,NETT,,2019/10/23 00:00:00+00,***9.19.18A***   WRECK AND REMOVE,CITY OF DETROIT HOUSING & REVITALIZATION, ,GAYANGA CO,1420 WASHINGTON BLVD,Permit Issuance,Issued,15002184,-83.025517,42.397882,353
-83.024216,42.39757,BLD2018-08892,7411,,MERKEL,,2019/10/23 00:00:00+00,***9.19.18A***   WRECK AND REMOVE,CITY OF DETROIT HOUSING  & REVITALIZATION, ,GAYANGA CO,1420 WASHINGTON BLVD,Permit Issuance,Issued,15002106,-83.024216,42.39757,354
-83.021889,42.395027,BLD2018-08893,8039, ,MARION, ,2019/10/18 00:00:00+00,***9.19.18A***  WRECK AND REMOVE,CITY OF DETROIT HOUSING & REVITALIZATION, ,GAYANGA CO,1420 WASHINGTON BLVD,Permit Issuance,Issued,17001568,-83.021889,42.395027,355
-83.021581,42.395539,BLD2018-08894,8058,,MARCUS,,2019/10/23 00:00:00+00,***9.19.18A***    WRECK AND REMOVE,CITY OF DETROIT HOUSING & REVITALIZATION, ,GAYANGA CO,1420 WASHINGTON BLVD,Permit Issuance,Issued,17001639,-83.021581,42.395539,356
-83.021035,42.395855,BLD2018-08895,8087, ,MARCUS, ,2019/10/18 00:00:00+00,***9.19.18A***   WRECK AND REMOVE,CITY OF DETROIT HOUSING & REVITALIZATION, ,GAYANGA CO,1420 WASHINGTON BLVD,Permit Issuance,Issued,17001655,-83.021035,42.395855,357
-83.020648,42.394719,BLD2018-08896,8104,,MARION,,2020/01/15 00:00:00+00,***9.19.18A***   WRECK AND REMOVE,DETROIT LAND BANK AUTHORITY,,GAYANGA CO.,1420 WASHINGTON BLVD,Permit Issuance,Issued,17001552,-83.020648,42.394719,358
,,BLD2018-08897,8110, ,MARION, ,2019/10/18 00:00:00+00,***9.19.18A***  WRECK AND REMOVE,CITY OF DETROIT HOUSING & REVITALIZATION, ,GAYANGA CO,1420 WASHINGTON BLVD,Permit Issuance,Issued,,,,359
-83.020884,42.400219,BLD2018-08898,8111, ,TRAVERSE, ,2019/10/18 00:00:00+00,***9.19.18A***   WRECK AND REMOVE,CITY OF DETROIT HOUSING & REVITALIZATION, ,GAYANGA CO,1420 WASHINGTON BLVD,Permit Issuance,Issued,17002069,-83.020884,42.400219,360
,,BLD2018-08899,8125, ,MARCUS, ,2019/10/18 00:00:00+00,***9.19.18A***    WRECK AND REMOVE,CITY OF DETROIT HOUSING & REVITALIZATION, ,GAYANGA CO,1420 WASHINGTON BLVD,Permit Issuance,Issued,,,,361
-83.01958,42.399346,BLD2018-08900,8173,,WOODLAWN,,2019/10/23 00:00:00+00,WRECK AND REMOVE   ***9.19.18A***,CITY OF DETROIT HOUSING & REVITALIZATION, ,GAYANGA CO,1420 WASHINGTON BLVD,Permit Issuance,Issued,17002001,-83.01958,42.399346,362
-83.019387,42.40018,BLD2018-08901,8187,,TRAVERSE,,2019/10/23 00:00:00+00,***9.19.18A***   WRECK AND REMOVE,CITY OF DETROIT HOUSING & REVITALIZATION, ,GAYANGA CO,1420 WASHINGTON BLVD,Permit Issuance,Issued,17002082,-83.019387,42.40018,363
-83.019184,42.400666,BLD2018-08902,8198,,GRINNELL,,2020/10/19 00:00:00+00,***9.19.18A*** WRECK AND REMOVE,CITY OF DETROIT HOUSING REVITALIZATION,,GAYANGA CO.,1420 WASHINGTON BLVD,Permit Issuance,Issued,17002111,-83.019184,42.400666,364
-82.93452,42.393662,BLD2018-02655,3691, ,THREE MILE,DRIVE,2019/10/09 00:00:00+00,RFP 4.3.18E    WRECK AND REMOVE,DETROIT LAND BANK AUTHORITY, ,SALENBIEN TRUCKING AND EXCAVATING,9217 N ANN ARBOR RD,Permit Issuance,Issued,21071351,-82.93452,42.393662,365
-83.001144,42.418748,BLD2018-09694,11742,,KENMOOR,,2019/01/14 00:00:00+00,WRECK AND REMOVE DEBRIS,DETROIT LAND BANK AUTHORITY," SMALLEY CONSTRUCTION, INC (W)","SMALLEY CONSTRUCTION, INC (W)",1224 LOCUST,Permit Issuance,Issued,21014006,-83.001144,42.418748,366
-83.087537,42.433306,DEM2019-01359,19132, ,GREELEY, ,2019/03/14 00:00:00+00,wreck and remove,DETROIT LAND BANK AUTHORITY, ,HOMRICH  WRECKING (2019),"65 CADILLAC SQ., SUITE # 2701",Permit Issuance,Issued,9019266,-83.087537,42.433306,367
-83.216453,42.431547,BLD2018-10042,19201,,HARLOW,,2019/01/23 00:00:00+00,PROPERTY LIST10.2.18C   WRECK AND REMOVE,DETROIT LAND BANK AUTHORITY, ,MCDONAGH DEMOLITION,7243 W TOUHY AVENUE,Permit Issuance,Issued,22070037,-83.216453,42.431547,368
,,BLD2018-08903,8221,,WOODLAWN,,2020/03/13 00:00:00+00,***9.19.18A***  WRECK AND REMOVE DEBRIS,CITY OF DETROIT HOUSING & REVITALIZATION,,GAYANGA CO.,1420 WASHINGTON BLVD,Permit Issuance,Issued,,,,369
-83.018391,42.400224,BLD2018-08904,8241,,TRAVERSE,,2020/01/15 00:00:00+00,WRECK AND REMOVE DEBRIS***9.19.18A***,DETROIT LAND BANK AUTHORITY,,GAYANGA CO.,1420 WASHINGTON BLVD,Permit Issuance,Issued,,-83.018391,42.400224,370
-83.016265,42.398259,BLD2018-08905,8666,,KNODELL,,2020/01/15 00:00:00+00,WRECK AND REMOVE  ***9.19.18A***,DETROIT LAND BANK AUTHORITY,,GAYANGA CO.,1420 WASHINGTON BLVD,Permit Issuance,Issued,19002702,-83.016265,42.398259,371
,,BLD2018-08906,8724, ,WOODLAWN, ,2019/10/18 00:00:00+00,***9.19.18A***  WRECK AND REMOVE,CITY OF DETROIT HOUSING & REVITALZIATION, ,GAYANGA CO,1420 WASHINGTON BLVD,Permit Issuance,Issued,,,,372
,,BLD2018-08907,8777, ,KNODELL, ,2019/10/18 00:00:00+00,***9.19.18A***    WRECK AND REMOVE,CITY OF DETROIT HOUSING & REVITALIZATION, ,GAYANGA CO,1420 WASHINGTON BLVD,Permit Issuance,Issued,,,,373
-83.013799,42.39951,BLD2018-08908,8795,,WOODLAWN,,2019/10/23 00:00:00+00,***9.19.18A***   WRECK AND REMOVE,CITY OF DETROIT HOUSING & REVITALIZATION, ,GAYANGA CO,1420 WASHINGTON BLVD,Permit Issuance,Issued,19003025,-83.013799,42.39951,374
-83.013684,42.398673,BLD2018-08909,8807, ,KNODELL, ,2019/10/18 00:00:00+00,WRECK AND REMOVE        ***9.19.18A***,CITY OF DETROIT HOUSING & REVITALIZATION, ,GAYANGA CO,1420 WASHINGTON BLVD,Permit Issuance,Issued,19002744,-83.013684,42.398673,375
-83.013456,42.39868,BLD2018-08910,8819, ,KNODELL, ,2019/10/18 00:00:00+00,***9.19.18A***  WRECK AND REMOVE,CITY OF DETROIT HOUSING & REVITALIZATION, ,GAYANGA CO,1420 WASHINGTON BLVD,Permit Issuance,Issued,19002746,-83.013456,42.39868,376
-83.013042,42.398387,BLD2018-08911,8838,,KNODELL,,2019/10/23 00:00:00+00,***9.19.18A***    WRECK AND REMOVE,CITY OF DETROIT HOUSING & REVITALIZATION, ,GAYANGA CO,1420 WASHINGTON BLVD,Permit Issuance,Issued,19002673,-83.013042,42.398387,377
-83.013329,42.393804,BLD2018-08912,8915,,BESSEMORE,,2020/01/15 00:00:00+00,WRECK AND REMOVE   ***9.19.18A***,DETROIT LAND BANK AUTHORITY,,GAYANGA CO.,1420 WASHINGTON BLVD,Permit Issuance,Issued,19002240,-83.013329,42.393804,378
-83.011852,42.395371,BLD2018-08913,8946,,MCCLELLAN,,2019/10/23 00:00:00+00,***9.19.18A***    WRECK AND REMOVE,CITY OF DETROIT HOUSING & REVITALIZATION, ,GAYANGA CO,1420 WASHINGTON BLVD,Permit Issuance,Issued,19006951,-83.011852,42.395371,379
-83.004392,42.396768,BLD2018-08914,8950,,MILNER,,2019/11/08 00:00:00+00,WRECK AND REMOVE ***9.19.18A***,CITY OF DETROIT HOUSING & REVITALIZATION, ,GAYANGA CO,1420 WASHINGTON BLVD,Permit Issuance,Issued,19003798,-83.004392,42.396768,380
-83.02643,42.396361,BLD2018-08915,9114,,ST CYRIL,,2019/10/23 00:00:00+00,***9.19.18A***   WRECK AND REMOVE,CITY OF DETROIT HOUSING & REVITALIZATION, ,GAYANGA CO,1420 WASHINGTON BLVD,Permit Issuance,Issued,15006851,-83.02643,42.396361,381
-83.00894,42.397421,BLD2018-08916,9127, ,RAYMOND, ,2019/10/18 00:00:00+00,***9.19.18A***   WRECK AND REMOVE,CITY OF DETORIT HOUSING & REVITALIZATION, ,GAYANGA CO,1420 WASHINGTON BLVD,Permit Issuance,Issued,19004049,-83.00894,42.397421,382
-83.013781,42.39746,BLD2018-08918,9161,,HOLCOMB,,2019/10/23 00:00:00+00,***9.19.18A***   WRECK AND REMOVE,CITY OF DETROIT HOUSING & REVITALIZATION, ,GAYANGA CO,1420 WASHINGTON BLVD,Permit Issuance,Issued,19008472,-83.013781,42.39746,383
-83.014759,42.397407,BLD2018-08919,9163,,ROHNS,,2020/01/15 00:00:00+00,WRECK AND REMOVE***9.19.18A***,DETROIT LAND BANK AUTHORITY,,GAYANGA CO.,1420 WASHINGTON BLVD,Permit Issuance,Issued,19009292,-83.014759,42.397407,384
-83.012043,42.398428,BLD2018-08921,9342, ,KNODELL, ,2019/10/18 00:00:00+00,***9.19.18A***   WRECK AND REMOVE,CITY OF DETROIT HOUSING & REVITALIZATION, ,GAYANGA CO,1420 WASHINGTON BLVD,Permit Issuance,Issued,19002666,-83.012043,42.398428,385
,,BLD2018-08922,9399, ,WOODLAWN, ,2019/10/18 00:00:00+00,***9.19.18A***   WRECK AND REMOVE,CITY OF DETROIT HOUSING & REVITALIZATION, ,GAYANGA CO,1420 WASHINGTON BLVD,Permit Issuance,Issued,,,,386
-83.009594,42.399651,BLD2018-08923,9477,,WOODLAWN,,2019/11/08 00:00:00+00,***9.19.18A***     WRECK AND REMOVE,CITY OF DETROIT HOUSING & REVITALIZATION, ,GAYANGA CO,1420 WASHINGTON BLVD,Permit Issuance,Issued,19003060,-83.009594,42.399651,387
-83.008212,42.399369,BLD2018-08924,9608, ,WOODLAWN, ,2019/10/18 00:00:00+00,***9.19.18A***   WRECK AND REMOVE,CITY OF DETROIT HOUSING & REVITALIZATION, ,GAYANGA CO,1420 WASHINGTON BLVD,Permit Issuance,Issued,19002913,-83.008212,42.399369,388
-83.006195,42.399424,BLD2018-08925,9714,,WOODLAWN,,2019/10/23 00:00:00+00,***9.19.18A***   WRECK AND REMOVE,CITY OF DETROIT HOUSING & REVITALIZATION, ,GAYANGA CO,1420 WASHINGTON BLVD,Permit Issuance,Issued,19002895,-83.006195,42.399424,389
-83.005317,42.399485,BLD2018-08926,9764, ,WOODLAWN, ,2019/10/18 00:00:00+00,***9.19.18A***  WRECK AND REMOVE,CITY OF DETROIT HOUSING & REVITALIZATION, ,GAYANGA CO,1420 WASHINGTON BLVD,Permit Issuance,Issued,19002887,-83.005317,42.399485,390
-83.004301,42.399512,BLD2018-08927,9818, ,WOODLAWN, ,2019/10/18 00:00:00+00,***9.19.18A***    WRECK AND REMOVE,CITY OF DETROIT HOUSING & REVITALIZATION, ,GAYANGA CO,1420 WASHINGTON BLVD,Permit Issuance,Issued,19002878,-83.004301,42.399512,391
-83.013246,42.395085,BLD2018-08928,8943,,HOLCOMB,,2019/10/23 00:00:00+00,***9.19.18A***  WRECK AND REMOVE,CITY OF DETROIT HOUSING & REVITALIZATION, ,GAYANGA CO,1420 WASHINGTON BLVD,Permit Issuance,Issued,19008499,-83.013246,42.395085,392
,,BLD2018-08929,9170,,FISCHER,,2020/10/19 00:00:00+00,***9.19.18A***   WRECK AND REMOVE,CITY OF DETROIT HOUSING REVITALIZATION,,GAYANGA CO.,1420 WASHINGTON BLVD,Permit Issuance,Issued,,,,393
,,BLD2018-09292,13411,,WADE,,2019/01/07 00:00:00+00,WRECK AND REMOVE DEBRIS     HHF Package 7.10.18F,DETROIT LAND BANK AUTHORITY, ,"RICKMAN ENTERPRISE GROUP, LLC",15533 WOODROW WILSON,Permit Issuance,Issued,,,,394
-83.066676,42.407333,BLD2018-09468,12314,,MAINE,,2019/01/14 00:00:00+00,WRECK AND REMOVE DEBRIS,DETROIT LAND BANK AUTHORITY, ,"INNER CITY CONTRACTING, LLC",15430 Lauder,Permit Issuance,Issued,9012318,-83.066676,42.407333,395
-83.067156,42.407337,BLD2018-09475,12327,,MAINE,,2019/01/14 00:00:00+00,WRECK AND REMOVE DEBRIS,DETROIT LAND BANK AUTHORITY, ,"INNER CITY CONTRACTING, LLC",15430 Lauder,Permit Issuance,Issued,9012856.001,-83.067156,42.407337,396
-83.067645,42.408813,BLD2018-09478,12434,,MAINE,,2019/01/14 00:00:00+00,WRECK AND REMOVE DEBRIS,DETROIT LAND BANK AUTHORITY, ,"INNER CITY CONTRACTING, LLC",15430 Lauder,Permit Issuance,Issued,9012336,-83.067645,42.408813,397
-83.068876,42.409095,BLD2018-09480,12482,,MACKAY,,2019/01/14 00:00:00+00,WRECK AND REMOVE DEBRIS,DETROIT LAND BANK AUTHORITY, ,"INNER CITY CONTRACTING, LLC",15430 Lauder,Permit Issuance,Issued,9012909,-83.068876,42.409095,398
-83.075329,42.408152,BLD2018-09486,1949,,LAWLEY,,2019/01/14 00:00:00+00,WRECK AND REMOVE DEBRIS,DETROIT LAND BANK AUTHORITY, ,"INNER CITY CONTRACTING, LLC",15430 Lauder,Permit Issuance,Issued,9006050,-83.075329,42.408152,399
-83.072111,42.404476,BLD2018-09489,1985,,MCPHERSON,,2019/01/14 00:00:00+00,WRECK AND REMOVE DEBRIS,DETROIT LAND BANK AUTHORITY, ,"INNER CITY CONTRACTING, LLC",15430 Lauder,Permit Issuance,Issued,9005330,-83.072111,42.404476,400
-83.074084,42.409068,BLD2018-09491,2038,,DEARING,,2019/01/14 00:00:00+00,WRECK AND REMOVE DEBRIS,DETROIT LAND BANK AUTHORITY, ,"INNER CITY CONTRACTING, LLC",15430 Lauder,Permit Issuance,Issued,9006158,-83.074084,42.409068,401
-83.073615,42.406331,BLD2018-09529,1973,,MCLEAN,,2019/01/14 00:00:00+00,WRECK AND REMOVE DEBRIS,DETROIT LAND BANK AUTHORITY, ,"INNER CITY CONTRACTING, LLC",15430 Lauder,Permit Issuance,Issued,9005726,-83.073615,42.406331,402
-83.073878,42.409137,BLD2018-09531,2050,,DEARING,,2019/01/14 00:00:00+00,WRECK AND REMOVE DEBRIS,DETROIT LAND BANK AUTHORITY, ,"INNER CITY CONTRACTING, LLC",15430 Lauder,Permit Issuance,Issued,9006156,-83.073878,42.409137,403
-83.073558,42.408809,BLD2018-09532,2057,,LAWLEY,,2019/01/14 00:00:00+00,WRECK AND REMOVE DEBRIS,DETROIT LAND BANK AUTHORITY, ,"INNER CITY CONTRACTING, LLC",15430 Lauder,Permit Issuance,Issued,9006068,-83.073558,42.408809,404
-83.073477,42.409639,BLD2018-09534,2087,,DEARING,,2019/01/14 00:00:00+00,WRECK AND REMOVE DEBRIS,DETROIT LAND BANK AUTHORITY, ,"INNER CITY CONTRACTING, LLC",15430 Lauder,Permit Issuance,Issued,9006205,-83.073477,42.409639,405
-83.072988,42.409466,BLD2018-09540,2104,,DEARING,,2019/01/14 00:00:00+00,WRECK AND REMOVE DEBRIS,DETROIT LAND BANK AUTHORITY, ,"INNER CITY CONTRACTING, LLC",15430 Lauder,Permit Issuance,Issued,9006147,-83.072988,42.409466,406
-83.072256,42.408942,BLD2018-09542,2120,,LAWLEY,,2019/01/14 00:00:00+00,WRECK AND REMOVE DEBRIS,DETROIT LAND BANK AUTHORITY, ,"INNER CITY CONTRACTING, LLC",15430 Lauder,Permit Issuance,Issued,9006027,-83.072256,42.408942,407
-83.071367,42.407575,BLD2018-09543,2122,,MEADE,,2019/01/14 00:00:00+00,WRECK AND REMOVE DEBRIS,DETROIT LAND BANK AUTHORITY, ,"INNER CITY CONTRACTING, LLC",15430 Lauder,Permit Issuance,Issued,9005818,-83.071367,42.407575,408
-83.067018,42.409212,BLD2018-09544,2748,,MEADE,,2019/01/14 00:00:00+00,WRECK AND REMOVE DEBRIS,DETROIT LAND BANK AUTHORITY, ,"INNER CITY CONTRACTING, LLC",15430 Lauder,Permit Issuance,Issued,9005799,-83.067018,42.409212,409
-83.206975,42.412503,BLD2018-09568,16711,,ST MARYS,,2019/01/25 00:00:00+00,WRECK AND REMOVE,DETROIT LAND BANK AUTHORITY," SMALLEY CONSTRUCTION, INC (W)","SMALLEY CONSTRUCTION, INC (W)",131 S. MAIN ST,Permit Issuance,Issued,22059005,-83.206975,42.412503,410
-83.19394,42.409386,BLD2018-09570,16126,,COYLE,,2019/01/25 00:00:00+00,WRECK AND REMOVE,DETROIT LAND BANK AUTHORITY," SMALLEY CONSTRUCTION, INC (W)","SMALLEY CONSTRUCTION, INC (W)",131 S. MAIN ST,Permit Issuance,Issued,22045020,-83.19394,42.409386,411
-83.182138,42.416039,BLD2018-09572,16919,,LESURE,,2019/01/25 00:00:00+00,WRECK AND REMOVE,DETROIT LAND BANK AUTHORITY," SMALLEY CONSTRUCTION, INC (W)","SMALLEY CONSTRUCTION, INC (W)",131 S. MAIN ST,Permit Issuance,Issued,,-83.182138,42.416039,412
-83.190467,42.405264,BLD2018-09573,15517,,MARLOWE,,2019/01/25 00:00:00+00,WRECK AND REMOVE,DETROIT LAND BANK AUTHORITY," SMALLEY CONSTRUCTION, INC (W)","SMALLEY CONSTRUCTION, INC (W)",131 S. MAIN ST,Permit Issuance,Issued,22041236,-83.190467,42.405264,413
-83.187689,42.411151,BLD2018-09574,16240,,STRATHMOOR,,2019/01/25 00:00:00+00,WRECK AND REMOVE,DETROIT LAND BANK AUTHORITY," SMALLEY CONSTRUCTION, INC (W)","SMALLEY CONSTRUCTION, INC (W)",131 S. MAIN ST,Permit Issuance,Issued,22037922,-83.187689,42.411151,414
-83.185124,42.411025,BLD2018-09592,16227,,ARDMORE,,2019/01/25 00:00:00+00,WRECK AND REMOVE,DETROIT LAND BANK AUTHORITY," SMALLEY CONSTRUCTION, INC (W)","SMALLEY CONSTRUCTION, INC (W)",131 S. MAIN ST,Permit Issuance,Issued,22035159,-83.185124,42.411025,415
-82.988845,42.399508,DEM2019-00923,11415, ,CAMDEN, ,2019/02/26 00:00:00+00,wrecking and remove,DETROIT LAND BANK AUTHORITY, ,HOMRICH  WRECKING (2019),"65 CADILLAC SQ., SUITE # 2701",Permit Issuance,Issued,21005844,-82.988845,42.399508,416
-83.204634,42.400045,BLD2018-09594,15991,,ELLSWORTH,,2019/01/25 00:00:00+00,WRECK AND REMOVE,DETROIT LAND BANK AUTHORITY," SMALLEY CONSTRUCTION, INC (W)","SMALLEY CONSTRUCTION, INC (W)",1224 LOCUST,Permit Issuance,Issued,22010547,-83.204634,42.400045,417
-83.194068,42.400825,BLD2018-09595,15091,,COYLE,,2019/01/25 00:00:00+00,WRECK AND REMOVE,DETROIT LAND BANK AUTHORITY," SMALLEY CONSTRUCTION, INC (W)","SMALLEY CONSTRUCTION, INC (W)",131 S. MAIN ST,Permit Issuance,Issued,22045480,-83.194068,42.400825,418
-83.185937,42.40565,BLD2018-09596,15701,,FREELAND,,2019/01/25 00:00:00+00,"TWO UNIT
WRECK AND REMOVE",DETROIT LAND BANK AUTHORITY," SMALLEY CONSTRUCTION, INC (W)","SMALLEY CONSTRUCTION, INC (W)",131 S. MAIN ST,Permit Issuance,Issued,22036194,-83.185937,42.40565,419
-83.201418,42.40545,BLD2018-09597,15700,,FORRER,,2019/01/25 00:00:00+00,WRECK AND REMOVE,DETROIT LAND BANK AUTHORITY," SMALLEY CONSTRUCTION, INC (W)","SMALLEY CONSTRUCTION, INC (W)",131 S. MAIN ST,Permit Issuance,Issued,,-83.201418,42.40545,420
-83.175579,42.400869,BLD2018-09598,15060,,LITTLEFIELD,,2019/01/25 00:00:00+00,WRECK AND REMOVE,DETROIT LAND BANK AUTHORITY," SMALLEY CONSTRUCTION, INC (W)","SMALLEY CONSTRUCTION, INC (W)",131 S. MAIN ST,Permit Issuance,Issued,22026772,-83.175579,42.400869,421
,,DEM2019-01239,4645, ,32ND,STREET,2019/03/13 00:00:00+00,wreck and remove,DETROIT LAND BANK AUTHORITY, ,HOMRICH  WRECKING (2019),"65 CADILLAC SQ., SUITE # 2701",Permit Issuance,Issued,,,,422
-83.193662,42.405152,BLD2018-09599,15516,,COYLE,,2019/01/25 00:00:00+00,WRECK AND REMOVE,DETROIT LAND BANK AUTHORITY," SMALLEY CONSTRUCTION, INC (W)","SMALLEY CONSTRUCTION, INC (W)",131 S. MAIN ST,Permit Issuance,Issued,22044985,-83.193662,42.405152,423
-82.984032,42.407293,BLD2018-09662,12305,,CHELSEA,,2019/01/14 00:00:00+00,WRECK AND REMOVE DEBRIS,DETROIT LAND BANK AUTHORITY," SMALLEY CONSTRUCTION, INC (W)","SMALLEY CONSTRUCTION, INC (W)",131 S. MAIN ST,Permit Issuance,Issued,21008148,-82.984032,42.407293,424
-82.996529,42.415444,BLD2018-09665,11862,,CHRISTY,,2019/01/14 00:00:00+00,WRECK AND REMOVE DEBRIS,DETROIT LAND BANK AUTHORITY," SMALLEY CONSTRUCTION, INC (W)","SMALLEY CONSTRUCTION, INC (W)",131 S. MAIN ST,Permit Issuance,Issued,21013155,-82.996529,42.415444,425
-83.192402,42.396491,BLD2018-09667,14640,,ROBSON,,2019/01/25 00:00:00+00,WRECK AND REMOVE,DETROIT LAND BANK AUTHORITY, ,"SMALLEY CONSTRUCTION, INC",1224 LOCUST ST,Permit Issuance,Issued,22043685,-83.192402,42.396491,426
-83.180329,42.400374,BLD2018-09668,15033,,TRACEY,,2019/01/25 00:00:00+00,WRECK AND REMOVE,DETROIT LAND BANK AUTHORITY," SMALLEY CONSTRUCTION, INC (W)","SMALLEY CONSTRUCTION, INC (W)",131 S. MAIN ST,Permit Issuance,Issued,22031913,-83.180329,42.400374,427
